{"type": "FeatureCollection", "features": [{"type": "Feature", "geometry": {"type": "Point", "coordinates": [-7.701565, 40.419388]}, "properties": {"id": "pt-ref-0001", "name": "AL.", "theme": "refuge", "description": "A Capela de São Pedro localiza-se no centro da cidade de Seia, na freguesia de Seia, São Romão e Lapa dos Dinheiros, município de Seia, no Distrito da Guarda, em Portugal.", "links": [{"label": "🔗 Wikipédia", "url": "https://pt.wikipedia.org/wiki/Capela_de_S%C3%A3o_Pedro_%28Seia%29"}, {"label": "🔎 Infos", "url": "https://www.google.com/search?q=AL.%20Portugal"}], "photos": ["https://upload.wikimedia.org/wikipedia/commons/thumb/b/bb/Capela_de_S%C3%A3o_Pedro_de_Seia.jpg/960px-Capela_de_S%C3%A3o_Pedro_de_Seia.jpg"], "details": {"fiche": "Référencé"}}}, {"type": "Feature", "geometry": {"type": "Point", "coordinates": [-7.701568, 40.419683]}, "properties": {"id": "pt-ref-0002", "name": "AL. Seia Villa", "theme": "refuge", "description": "A Capela de São Pedro localiza-se no centro da cidade de Seia, na freguesia de Seia, São Romão e Lapa dos Dinheiros, município de Seia, no Distrito da Guarda, em Portugal.", "links": [{"label": "🔗 Wikipédia", "url": "https://pt.wikipedia.org/wiki/Capela_de_S%C3%A3o_Pedro_%28Seia%29"}, {"label": "🔎 Infos", "url": "https://www.google.com/search?q=AL.%20Seia%20Villa%20Portugal"}], "photos": ["https://upload.wikimedia.org/wikipedia/commons/thumb/b/bb/Capela_de_S%C3%A3o_Pedro_de_Seia.jpg/960px-Capela_de_S%C3%A3o_Pedro_de_Seia.jpg"], "details": {"fiche": "Référencé"}}}, {"type": "Feature", "geometry": {"type": "Point", "coordinates": [-7.879473, 41.236737]}, "properties": {"id": "pt-ref-0003", "name": "Abrigo da Ermida", "theme": "refuge", "description": "", "links": [{"label": "🔎 Infos", "url": "https://www.google.com/search?q=Abrigo%20da%20Ermida%20Portugal"}], "photos": [], "details": {"fiche": "À vérifier"}}}, {"type": "Feature", "geometry": {"type": "Point", "coordinates": [-8.215422, 41.805797]}, "properties": {"id": "pt-ref-0004", "name": "Abrigo de Bentozelo", "theme": "refuge", "description": "", "links": [{"label": "🔎 Infos", "url": "https://www.google.com/search?q=Abrigo%20de%20Bentozelo%20Portugal"}], "photos": [], "details": {"fiche": "À vérifier"}}}, {"type": "Feature", "geometry": {"type": "Point", "coordinates": [-8.205279, 41.833912]}, "properties": {"id": "pt-ref-0005", "name": "Abrigo de Bugalhedo", "theme": "refuge", "description": "", "links": [{"label": "🔎 Infos", "url": "https://www.google.com/search?q=Abrigo%20de%20Bugalhedo%20Portugal"}], "photos": [], "details": {"fiche": "À vérifier"}}}, {"type": "Feature", "geometry": {"type": "Point", "coordinates": [-8.222591, 41.812047]}, "properties": {"id": "pt-ref-0006", "name": "Abrigo de Martimguim", "theme": "refuge", "description": "", "links": [{"label": "🔎 Infos", "url": "https://www.google.com/search?q=Abrigo%20de%20Martimguim%20Portugal"}], "photos": [], "details": {"fiche": "À vérifier"}}}, {"type": "Feature", "geometry": {"type": "Point", "coordinates": [-7.911512, 41.230836]}, "properties": {"id": "pt-ref-0007", "name": "Abrigo do Teixo", "theme": "refuge", "description": "", "links": [{"label": "🔎 Infos", "url": "https://www.google.com/search?q=Abrigo%20do%20Teixo%20Portugal"}], "photos": [], "details": {"fiche": "À vérifier"}}}, {"type": "Feature", "geometry": {"type": "Point", "coordinates": [-6.876304, 41.549115]}, "properties": {"id": "pt-ref-0008", "name": "Albergue de Salselas", "theme": "refuge", "description": "O Apeadeiro de Salselas (nome anteriormente grafado como \"Salsellas\") foi uma gare da Linha do Tua, que servia a localidade de Salselas, no concelho de Macedo de Cavaleiros, em Portugal.", "links": [{"label": "🔗 Wikipédia", "url": "https://pt.wikipedia.org/wiki/Apeadeiro_de_Salselas"}, {"label": "🔎 Infos", "url": "https://www.google.com/search?q=Albergue%20de%20Salselas%20Portugal"}], "photos": ["https://upload.wikimedia.org/wikipedia/commons/0/06/Horario_da_Linha_do_Tua_-_Guia_Official_CF_168_1913.jpg"], "details": {"fiche": "Référencé"}}}, {"type": "Feature", "geometry": {"type": "Point", "coordinates": [-9.119839, 38.900643]}, "properties": {"id": "pt-ref-0009", "name": "Areipor", "theme": "refuge", "description": "O Museu do Vinho e da Vinha, é um museu situado em Bucelas, no concelho de Loures, em Portugal.", "links": [{"label": "🔗 Wikipédia", "url": "https://pt.wikipedia.org/wiki/Museu_do_Vinho_e_da_Vinha_%28Bucelas%29"}, {"label": "🔎 Infos", "url": "https://www.google.com/search?q=Areipor%20Portugal"}], "photos": ["https://upload.wikimedia.org/wikipedia/commons/thumb/7/7d/MVVB_1.jpg/960px-MVVB_1.jpg"], "details": {"fiche": "Référencé"}}}, {"type": "Feature", "geometry": {"type": "Point", "coordinates": [-8.19557, 41.808625]}, "properties": {"id": "pt-ref-0010", "name": "Cabana da Chã da Fonte", "theme": "refuge", "description": "", "links": [{"label": "🔎 Infos", "url": "https://www.google.com/search?q=Cabana%20da%20Ch%C3%A3%20da%20Fonte%20Portugal"}], "photos": [], "details": {"fiche": "À vérifier"}}}, {"type": "Feature", "geometry": {"type": "Point", "coordinates": [-8.219705, 41.829979]}, "properties": {"id": "pt-ref-0011", "name": "Cabana da Escaravilheira", "theme": "refuge", "description": "", "links": [{"label": "🔎 Infos", "url": "https://www.google.com/search?q=Cabana%20da%20Escaravilheira%20Portugal"}], "photos": [], "details": {"fiche": "À vérifier"}}}, {"type": "Feature", "geometry": {"type": "Point", "coordinates": [-8.213591, 41.832361]}, "properties": {"id": "pt-ref-0012", "name": "Cabana de Bem Espero", "theme": "refuge", "description": "", "links": [{"label": "🔎 Infos", "url": "https://www.google.com/search?q=Cabana%20de%20Bem%20Espero%20Portugal"}], "photos": [], "details": {"fiche": "À vérifier"}}}, {"type": "Feature", "geometry": {"type": "Point", "coordinates": [-8.229233, 41.836906]}, "properties": {"id": "pt-ref-0013", "name": "Cabana de Gordemela", "theme": "refuge", "description": "", "links": [{"label": "🔎 Infos", "url": "https://www.google.com/search?q=Cabana%20de%20Gordemela%20Portugal"}], "photos": [], "details": {"fiche": "À vérifier"}}}, {"type": "Feature", "geometry": {"type": "Point", "coordinates": [-8.21485, 41.840932]}, "properties": {"id": "pt-ref-0014", "name": "Cabana de Sobreiro Quente", "theme": "refuge", "description": "", "links": [{"label": "🔎 Infos", "url": "https://www.google.com/search?q=Cabana%20de%20Sobreiro%20Quente%20Portugal"}], "photos": [], "details": {"fiche": "À vérifier"}}}, {"type": "Feature", "geometry": {"type": "Point", "coordinates": [-8.20623, 41.843765]}, "properties": {"id": "pt-ref-0015", "name": "Cabana do Aradoiro", "theme": "refuge", "description": "", "links": [{"label": "🔎 Infos", "url": "https://www.google.com/search?q=Cabana%20do%20Aradoiro%20Portugal"}], "photos": [], "details": {"fiche": "À vérifier"}}}, {"type": "Feature", "geometry": {"type": "Point", "coordinates": [-8.191135, 41.818791]}, "properties": {"id": "pt-ref-0016", "name": "Cabana do Fial", "theme": "refuge", "description": "", "links": [{"label": "🔎 Infos", "url": "https://www.google.com/search?q=Cabana%20do%20Fial%20Portugal"}], "photos": [], "details": {"fiche": "À vérifier"}}}, {"type": "Feature", "geometry": {"type": "Point", "coordinates": [-8.104652, 41.722035]}, "properties": {"id": "pt-ref-0017", "name": "Cabana do Pinhõ", "theme": "refuge", "description": "", "links": [{"label": "🔎 Infos", "url": "https://www.google.com/search?q=Cabana%20do%20Pinh%C3%B5%20Portugal"}], "photos": [], "details": {"fiche": "À vérifier"}}}, {"type": "Feature", "geometry": {"type": "Point", "coordinates": [-8.182417, 41.80895]}, "properties": {"id": "pt-ref-0018", "name": "Cabana do Ramisquedo", "theme": "refuge", "description": "", "links": [{"label": "🔎 Infos", "url": "https://www.google.com/search?q=Cabana%20do%20Ramisquedo%20Portugal"}], "photos": [], "details": {"fiche": "À vérifier"}}}, {"type": "Feature", "geometry": {"type": "Point", "coordinates": [-8.747158, 38.410242]}, "properties": {"id": "pt-ref-0019", "name": "Cabana do Sol", "theme": "refuge", "description": "", "links": [{"label": "🔎 Infos", "url": "https://www.google.com/search?q=Cabana%20do%20Sol%20Portugal"}], "photos": [], "details": {"fiche": "À vérifier"}}}, {"type": "Feature", "geometry": {"type": "Point", "coordinates": [-8.075761, 41.727046]}, "properties": {"id": "pt-ref-0020", "name": "Cabana do Vidoal", "theme": "refuge", "description": "", "links": [{"label": "🔎 Infos", "url": "https://www.google.com/search?q=Cabana%20do%20Vidoal%20Portugal"}], "photos": [], "details": {"fiche": "À vérifier"}}}, {"type": "Feature", "geometry": {"type": "Point", "coordinates": [-9.145032, 38.64913]}, "properties": {"id": "pt-ref-0021", "name": "Casa", "theme": "refuge", "description": "", "links": [{"label": "🔎 Infos", "url": "https://www.google.com/search?q=Casa%20Portugal"}], "photos": [], "details": {"fiche": "À vérifier"}}}, {"type": "Feature", "geometry": {"type": "Point", "coordinates": [-8.80799, 39.546181]}, "properties": {"id": "pt-ref-0022", "name": "Casa Abrigo do NEL", "theme": "refuge", "description": "", "links": [{"label": "🌐 Site officiel", "url": "http://colipium.wix.com/nel-casa-abrigo"}, {"label": "🔎 Infos", "url": "https://www.google.com/search?q=Casa%20Abrigo%20do%20NEL%20Portugal"}], "photos": [], "details": {"altitude": "455 m", "altitude_n": 455, "capacite": "11 places", "places_n": 11, "fiche": "Référencé"}}}, {"type": "Feature", "geometry": {"type": "Point", "coordinates": [-8.169636, 41.74565]}, "properties": {"id": "pt-ref-0023", "name": "Casa Florestal da Junceda", "theme": "refuge", "description": "", "links": [{"label": "🔎 Infos", "url": "https://www.google.com/search?q=Casa%20Florestal%20da%20Junceda%20Portugal"}], "photos": [], "details": {"altitude": "915 m", "altitude_n": 915, "fiche": "À vérifier"}}}, {"type": "Feature", "geometry": {"type": "Point", "coordinates": [-28.426645, 38.470539]}, "properties": {"id": "pt-ref-0024", "name": "Casa da Montanha", "theme": "refuge", "description": "opening Times\n\n* 1.nov > 3.march => 08h00 - 18h00\n** closed 1.jan/25.dez\n* 1 - 30.april => mo - fr 08h00 - 20h00\n* 1.may > 30.sep. => 24/7\n* 1 - 31.october => mo - fr 08h00 - 20h00\n\nManagement reserves the right top close , according to weather condition", "links": [{"label": "🌐 Site officiel", "url": "https://parquesnaturais.azores.gov.pt/en/parques/5/centro/7"}, {"label": "🔎 Infos", "url": "https://www.google.com/search?q=Casa%20da%20Montanha%20Portugal"}], "photos": [], "details": {"capacite": "160 places", "places_n": 160, "fiche": "Référencé"}}}, {"type": "Feature", "geometry": {"type": "Point", "coordinates": [-7.863231, 39.938391]}, "properties": {"id": "pt-ref-0025", "name": "Casa do Dão - Turismo", "theme": "refuge", "description": "", "links": [{"label": "🔎 Infos", "url": "https://www.google.com/search?q=Casa%20do%20D%C3%A3o%20-%20Turismo%20Portugal"}], "photos": [], "details": {"fiche": "À vérifier"}}}, {"type": "Feature", "geometry": {"type": "Point", "coordinates": [-8.41867, 40.707433]}, "properties": {"id": "pt-ref-0026", "name": "Casa do Guarda", "theme": "refuge", "description": "", "links": [{"label": "🔎 Infos", "url": "https://www.google.com/search?q=Casa%20do%20Guarda%20Portugal"}], "photos": [], "details": {"fiche": "À vérifier"}}}, {"type": "Feature", "geometry": {"type": "Point", "coordinates": [-8.366055, 38.486615]}, "properties": {"id": "pt-ref-0027", "name": "Casas dos 5 Elementos", "theme": "refuge", "description": "", "links": [{"label": "🔎 Infos", "url": "https://www.google.com/search?q=Casas%20dos%205%20Elementos%20Portugal"}], "photos": [], "details": {"fiche": "À vérifier"}}}, {"type": "Feature", "geometry": {"type": "Point", "coordinates": [-8.678075, 41.860239]}, "properties": {"id": "pt-ref-0028", "name": "Fonte de Vilarinho", "theme": "refuge", "description": "", "links": [{"label": "🔎 Infos", "url": "https://www.google.com/search?q=Fonte%20de%20Vilarinho%20Portugal"}], "photos": [], "details": {"fiche": "À vérifier"}}}, {"type": "Feature", "geometry": {"type": "Point", "coordinates": [-25.02809, 36.953352]}, "properties": {"id": "pt-ref-0029", "name": "Ilha a Pé Lapa", "theme": "refuge", "description": "", "links": [{"label": "🌐 Site officiel", "url": "https://www.ilhape.com/"}, {"label": "🔎 Infos", "url": "https://www.google.com/search?q=Ilha%20a%20P%C3%A9%20Lapa%20Portugal"}], "photos": [], "details": {"fiche": "Référencé"}}}, {"type": "Feature", "geometry": {"type": "Point", "coordinates": [-25.079148, 36.944973]}, "properties": {"id": "pt-ref-0030", "name": "Ilha a Pé Malbusca", "theme": "refuge", "description": "", "links": [{"label": "🌐 Site officiel", "url": "https://www.ilhape.com/"}, {"label": "🔎 Infos", "url": "https://www.google.com/search?q=Ilha%20a%20P%C3%A9%20Malbusca%20Portugal"}], "photos": [], "details": {"fiche": "Référencé"}}}, {"type": "Feature", "geometry": {"type": "Point", "coordinates": [-25.065385, 37.006493]}, "properties": {"id": "pt-ref-0031", "name": "Ilha a Pé Norte", "theme": "refuge", "description": "", "links": [{"label": "🌐 Site officiel", "url": "https://www.ilhape.com/"}, {"label": "🔎 Infos", "url": "https://www.google.com/search?q=Ilha%20a%20P%C3%A9%20Norte%20Portugal"}], "photos": [], "details": {"fiche": "Référencé"}}}, {"type": "Feature", "geometry": {"type": "Point", "coordinates": [-25.111918, 37.002116]}, "properties": {"id": "pt-ref-0032", "name": "Ilha a Pé Raposo", "theme": "refuge", "description": "", "links": [{"label": "🔎 Infos", "url": "https://www.google.com/search?q=Ilha%20a%20P%C3%A9%20Raposo%20Portugal"}], "photos": [], "details": {"fiche": "À vérifier"}}}, {"type": "Feature", "geometry": {"type": "Point", "coordinates": [-8.063796, 41.108041]}, "properties": {"id": "pt-ref-0033", "name": "Lavandeira Douro Nature & Wellness", "theme": "refuge", "description": "", "links": [{"label": "🌐 Site officiel", "url": "https://lavandeiradouro.com/"}, {"label": "🔎 Infos", "url": "https://www.google.com/search?q=Lavandeira%20Douro%20Nature%20%26%20Wellness%20Portugal"}], "photos": [], "details": {"fiche": "Référencé"}}}, {"type": "Feature", "geometry": {"type": "Point", "coordinates": [-7.775841, 40.635128]}, "properties": {"id": "pt-ref-0034", "name": "Quinta do Rio Dao", "theme": "refuge", "description": "", "links": [{"label": "🔎 Infos", "url": "https://www.google.com/search?q=Quinta%20do%20Rio%20Dao%20Portugal"}], "photos": [], "details": {"fiche": "À vérifier"}}}, {"type": "Feature", "geometry": {"type": "Point", "coordinates": [-8.20481, 41.833329]}, "properties": {"id": "pt-ref-0035", "name": "Refúgio do Carqueijal", "theme": "refuge", "description": "", "links": [{"label": "🔎 Infos", "url": "https://www.google.com/search?q=Ref%C3%BAgio%20do%20Carqueijal%20Portugal"}], "photos": [], "details": {"fiche": "À vérifier"}}}, {"type": "Feature", "geometry": {"type": "Point", "coordinates": [-8.2201, 40.195516]}, "properties": {"id": "pt-ref-0036", "name": "vale de cevada regeneração", "theme": "refuge", "description": "", "links": [{"label": "🌐 Site officiel", "url": "https://www.facebook.com/share/1AJnHV13uB/"}, {"label": "🔎 Infos", "url": "https://www.google.com/search?q=vale%20de%20cevada%20regenera%C3%A7%C3%A3o%20Portugal"}], "photos": [], "details": {"fiche": "Référencé"}}}, {"type": "Feature", "geometry": {"type": "Point", "coordinates": [-8.771421, 41.474603]}, "properties": {"id": "pt-camp-0001", "name": "ACE – Apúlia Centro Escutista", "theme": "camping", "description": "", "links": [{"label": "🔎 Infos", "url": "https://www.google.com/search?q=ACE%20%E2%80%93%20Ap%C3%BAlia%20Centro%20Escutista%20Portugal"}], "photos": [], "details": {"fiche": "À vérifier"}}}, {"type": "Feature", "geometry": {"type": "Point", "coordinates": [-8.050674, 37.246507]}, "properties": {"id": "pt-camp-0002", "name": "ASA Motorhome Service Area of Salir", "theme": "camping", "description": "", "links": [{"label": "🔎 Infos", "url": "https://www.google.com/search?q=ASA%20Motorhome%20Service%20Area%20of%20Salir%20Portugal"}], "photos": [], "details": {"fiche": "À vérifier"}}}, {"type": "Feature", "geometry": {"type": "Point", "coordinates": [-9.036095, 39.73537]}, "properties": {"id": "pt-camp-0003", "name": "Acampamento Baptista", "theme": "camping", "description": "", "links": [{"label": "🔎 Infos", "url": "https://www.google.com/search?q=Acampamento%20Baptista%20Portugal"}], "photos": [], "details": {"fiche": "À vérifier"}}}, {"type": "Feature", "geometry": {"type": "Point", "coordinates": [-9.464398, 38.818918]}, "properties": {"id": "pt-camp-0004", "name": "Aldeia da Praia", "theme": "camping", "description": "", "links": [{"label": "🔎 Infos", "url": "https://www.google.com/search?q=Aldeia%20da%20Praia%20Portugal"}], "photos": [], "details": {"fiche": "À vérifier"}}}, {"type": "Feature", "geometry": {"type": "Point", "coordinates": [-9.026949, 39.059434]}, "properties": {"id": "pt-camp-0005", "name": "Alenquer Rustic Camping", "theme": "camping", "description": "mainly bungalows, 3-4 places for camping cars", "links": [{"label": "🔎 Infos", "url": "https://www.google.com/search?q=Alenquer%20Rustic%20Camping%20Portugal"}], "photos": [], "details": {"fiche": "À vérifier"}}}, {"type": "Feature", "geometry": {"type": "Point", "coordinates": [-7.800836, 37.073221]}, "properties": {"id": "pt-camp-0006", "name": "Algarve Moncarapacho", "theme": "camping", "description": "", "links": [{"label": "🔎 Infos", "url": "https://www.google.com/search?q=Algarve%20Moncarapacho%20Portugal"}], "photos": [], "details": {"fiche": "À vérifier"}}}, {"type": "Feature", "geometry": {"type": "Point", "coordinates": [-8.212819, 37.316891]}, "properties": {"id": "pt-camp-0007", "name": "Algarve Safari Lodge", "theme": "camping", "description": "", "links": [{"label": "🔎 Infos", "url": "https://www.google.com/search?q=Algarve%20Safari%20Lodge%20Portugal"}], "photos": [], "details": {"fiche": "À vérifier"}}}, {"type": "Feature", "geometry": {"type": "Point", "coordinates": [-7.635735, 38.116863]}, "properties": {"id": "pt-camp-0008", "name": "Alqueva Camping Car Park", "theme": "camping", "description": "Quinta Ecológica", "links": [{"label": "🔎 Infos", "url": "https://www.google.com/search?q=Alqueva%20Camping%20Car%20Park%20Portugal"}], "photos": [], "details": {"fiche": "Référencé"}}}, {"type": "Feature", "geometry": {"type": "Point", "coordinates": [-8.069099, 41.281496]}, "properties": {"id": "pt-camp-0009", "name": "Amarante Camping", "theme": "camping", "description": "", "links": [{"label": "🌐 Site officiel", "url": "https://amarantecamping.com/"}, {"label": "🔎 Infos", "url": "https://www.google.com/search?q=Amarante%20Camping%20Portugal"}], "photos": [], "details": {"fiche": "Référencé"}}}, {"type": "Feature", "geometry": {"type": "Point", "coordinates": [-8.659528, 41.102984]}, "properties": {"id": "pt-camp-0010", "name": "Associação Mar e Pinhal", "theme": "camping", "description": "", "links": [{"label": "🔎 Infos", "url": "https://www.google.com/search?q=Associa%C3%A7%C3%A3o%20Mar%20e%20Pinhal%20Portugal"}], "photos": [], "details": {"fiche": "À vérifier"}}}, {"type": "Feature", "geometry": {"type": "Point", "coordinates": [-8.717836, 37.500524]}, "properties": {"id": "pt-camp-0011", "name": "Aterra Eco Camping", "theme": "camping", "description": "", "links": [{"label": "🌐 Site officiel", "url": "https://www.aterra.pt"}, {"label": "🔎 Infos", "url": "https://www.google.com/search?q=Aterra%20Eco%20Camping%20Portugal"}], "photos": [], "details": {"fiche": "Référencé"}}}, {"type": "Feature", "geometry": {"type": "Point", "coordinates": [-28.675942, 38.53354]}, "properties": {"id": "pt-camp-0012", "name": "Azul Singular", "theme": "camping", "description": "", "links": [{"label": "🌐 Site officiel", "url": "https://azulsingular.pt"}, {"label": "🔎 Infos", "url": "https://www.google.com/search?q=Azul%20Singular%20Portugal"}], "photos": [], "details": {"fiche": "Référencé"}}}, {"type": "Feature", "geometry": {"type": "Point", "coordinates": [-8.612835, 37.743122]}, "properties": {"id": "pt-camp-0013", "name": "Azula Camping", "theme": "camping", "description": "", "links": [{"label": "🔎 Infos", "url": "https://www.google.com/search?q=Azula%20Camping%20Portugal"}], "photos": [], "details": {"fiche": "À vérifier"}}}, {"type": "Feature", "geometry": {"type": "Point", "coordinates": [-8.364681, 41.742822]}, "properties": {"id": "pt-camp-0014", "name": "BEG - Base Escutista de Gondomar", "theme": "camping", "description": "", "links": [{"label": "🔎 Infos", "url": "https://www.google.com/search?q=BEG%20-%20Base%20Escutista%20de%20Gondomar%20Portugal"}], "photos": [], "details": {"fiche": "À vérifier"}}}, {"type": "Feature", "geometry": {"type": "Point", "coordinates": [-28.609296, 38.552674]}, "properties": {"id": "pt-camp-0015", "name": "Bearsu Nature Almoxarife", "theme": "camping", "description": "", "links": [{"label": "🔎 Infos", "url": "https://www.google.com/search?q=Bearsu%20Nature%20Almoxarife%20Portugal"}], "photos": [], "details": {"fiche": "À vérifier"}}}, {"type": "Feature", "geometry": {"type": "Point", "coordinates": [-17.058755, 32.756734]}, "properties": {"id": "pt-camp-0016", "name": "Bica da Cana", "theme": "camping", "description": "", "links": [{"label": "🌐 Site officiel", "url": "https://www.madeiracamping.com/bica-da-cana/"}, {"label": "🔎 Infos", "url": "https://www.google.com/search?q=Bica%20da%20Cana%20Portugal"}], "photos": [], "details": {"fiche": "Référencé"}}}, {"type": "Feature", "geometry": {"type": "Point", "coordinates": [-16.952825, 32.809839]}, "properties": {"id": "pt-camp-0017", "name": "Boca das Voltas", "theme": "camping", "description": "", "links": [{"label": "🌐 Site officiel", "url": "https://www.madeiracamping.com/boca-das-voltas/"}, {"label": "🔎 Infos", "url": "https://www.google.com/search?q=Boca%20das%20Voltas%20Portugal"}], "photos": [], "details": {"fiche": "Référencé"}}}, {"type": "Feature", "geometry": {"type": "Point", "coordinates": [-16.772884, 32.755546]}, "properties": {"id": "pt-camp-0018", "name": "Boca do Risco", "theme": "camping", "description": "not legal", "links": [{"label": "🔎 Infos", "url": "https://www.google.com/search?q=Boca%20do%20Risco%20Portugal"}], "photos": [], "details": {"fiche": "À vérifier"}}}, {"type": "Feature", "geometry": {"type": "Point", "coordinates": [-7.883277, 38.830076]}, "properties": {"id": "pt-camp-0019", "name": "Bubulcus & Bolotas", "theme": "camping", "description": "", "links": [{"label": "🌐 Site officiel", "url": "https://www.bbcamping.eu/"}, {"label": "🔎 Infos", "url": "https://www.google.com/search?q=Bubulcus%20%26%20Bolotas%20Portugal"}], "photos": [], "details": {"fiche": "Référencé"}}}, {"type": "Feature", "geometry": {"type": "Point", "coordinates": [-9.005041, 38.49548]}, "properties": {"id": "pt-camp-0020", "name": "CEADA - Centro Escutista da Arrábida", "theme": "camping", "description": "", "links": [{"label": "🌐 Site officiel", "url": "http://ceada.cne-escutismo.pt"}, {"label": "🔎 Infos", "url": "https://www.google.com/search?q=CEADA%20-%20Centro%20Escutista%20da%20Arr%C3%A1bida%20Portugal"}], "photos": [], "details": {"fiche": "Référencé"}}}, {"type": "Feature", "geometry": {"type": "Point", "coordinates": [-8.472645, 41.854087]}, "properties": {"id": "pt-camp-0021", "name": "CEAV - Centro Escutista de Arcos de Valdevez", "theme": "camping", "description": "", "links": [{"label": "🔎 Infos", "url": "https://www.google.com/search?q=CEAV%20-%20Centro%20Escutista%20de%20Arcos%20de%20Valdevez%20Portugal"}], "photos": [], "details": {"fiche": "À vérifier"}}}, {"type": "Feature", "geometry": {"type": "Point", "coordinates": [-8.597549, 41.415962]}, "properties": {"id": "pt-camp-0022", "name": "CENF - Centro Escutista do Núcleo de Famalicão", "theme": "camping", "description": "", "links": [{"label": "🔎 Infos", "url": "https://www.google.com/search?q=CENF%20-%20Centro%20Escutista%20do%20N%C3%BAcleo%20de%20Famalic%C3%A3o%20Portugal"}], "photos": [], "details": {"fiche": "À vérifier"}}}, {"type": "Feature", "geometry": {"type": "Point", "coordinates": [-8.736799, 40.668994]}, "properties": {"id": "pt-camp-0023", "name": "CENFA - Centro Nacional de Formação Ambiental de São Jacinto", "theme": "camping", "description": "", "links": [{"label": "🔎 Infos", "url": "https://www.google.com/search?q=CENFA%20-%20Centro%20Nacional%20de%20Forma%C3%A7%C3%A3o%20Ambiental%20de%20S%C3%A3o%20Jacinto%20Portugal"}], "photos": [], "details": {"fiche": "À vérifier"}}}, {"type": "Feature", "geometry": {"type": "Point", "coordinates": [-7.188373, 39.923159]}, "properties": {"id": "pt-camp-0024", "name": "CNAE – Campo Nacional de Atividades Escutistas de Idanha-a-Nova", "theme": "camping", "description": "", "links": [{"label": "🔎 Infos", "url": "https://www.google.com/search?q=CNAE%20%E2%80%93%20Campo%20Nacional%20de%20Atividades%20Escutistas%20de%20Idanha-a-Nova%20Portugal"}], "photos": [], "details": {"fiche": "À vérifier"}}}, {"type": "Feature", "geometry": {"type": "Point", "coordinates": [-8.436586, 41.39852]}, "properties": {"id": "pt-camp-0025", "name": "CNE Ruivães", "theme": "camping", "description": "", "links": [{"label": "🔎 Infos", "url": "https://www.google.com/search?q=CNE%20Ruiv%C3%A3es%20Portugal"}], "photos": [], "details": {"fiche": "À vérifier"}}}, {"type": "Feature", "geometry": {"type": "Point", "coordinates": [-7.869485, 41.314921]}, "properties": {"id": "pt-camp-0026", "name": "CRAE - Centro Regional de Atividades Escutistas", "theme": "camping", "description": "", "links": [{"label": "🔎 Infos", "url": "https://www.google.com/search?q=CRAE%20-%20Centro%20Regional%20de%20Atividades%20Escutistas%20Portugal"}], "photos": [], "details": {"fiche": "À vérifier"}}}, {"type": "Feature", "geometry": {"type": "Point", "coordinates": [-8.070855, 37.103561]}, "properties": {"id": "pt-camp-0027", "name": "CamperServ", "theme": "camping", "description": "", "links": [{"label": "🌐 Site officiel", "url": "https://camperserv.com/"}, {"label": "🔎 Infos", "url": "https://www.google.com/search?q=CamperServ%20Portugal"}], "photos": [], "details": {"fiche": "Référencé"}}}, {"type": "Feature", "geometry": {"type": "Point", "coordinates": [-8.428156, 41.038511]}, "properties": {"id": "pt-camp-0028", "name": "Campidouro", "theme": "camping", "description": "", "links": [{"label": "🌐 Site officiel", "url": "https://campidouro.pt/"}, {"label": "🔎 Infos", "url": "https://www.google.com/search?q=Campidouro%20Portugal"}], "photos": [], "details": {"fiche": "Référencé"}}}, {"type": "Feature", "geometry": {"type": "Point", "coordinates": [-9.18795, 38.465041]}, "properties": {"id": "pt-camp-0029", "name": "Campimeco", "theme": "camping", "description": "", "links": [{"label": "🔎 Infos", "url": "https://www.google.com/search?q=Campimeco%20Portugal"}], "photos": [], "details": {"fiche": "À vérifier"}}}, {"type": "Feature", "geometry": {"type": "Point", "coordinates": [-7.687383, 38.792586]}, "properties": {"id": "pt-camp-0030", "name": "Camping Alentejo", "theme": "camping", "description": "", "links": [{"label": "🌐 Site officiel", "url": "https://www.campingalentejo.com/"}, {"label": "🔎 Infos", "url": "https://www.google.com/search?q=Camping%20Alentejo%20Portugal"}], "photos": [], "details": {"fiche": "Référencé"}}}, {"type": "Feature", "geometry": {"type": "Point", "coordinates": [-7.340833, 39.410546]}, "properties": {"id": "pt-camp-0031", "name": "Camping Asseiceira", "theme": "camping", "description": "", "links": [{"label": "🌐 Site officiel", "url": "https://www.campingasseiceira.com/"}, {"label": "🔎 Infos", "url": "https://www.google.com/search?q=Camping%20Asseiceira%20Portugal"}], "photos": [], "details": {"fiche": "Référencé"}}}, {"type": "Feature", "geometry": {"type": "Point", "coordinates": [-8.783987, 37.729928]}, "properties": {"id": "pt-camp-0032", "name": "Camping Campiférias", "theme": "camping", "description": "", "links": [{"label": "🌐 Site officiel", "url": "https://www.campingcampiferias.com"}, {"label": "🔎 Infos", "url": "https://www.google.com/search?q=Camping%20Campif%C3%A9rias%20Portugal"}], "photos": [], "details": {"fiche": "Référencé"}}}, {"type": "Feature", "geometry": {"type": "Point", "coordinates": [-8.887443, 39.899823]}, "properties": {"id": "pt-camp-0033", "name": "Camping Coimbrão", "theme": "camping", "description": "", "links": [{"label": "🔎 Infos", "url": "https://www.google.com/search?q=Camping%20Coimbr%C3%A3o%20Portugal"}], "photos": [], "details": {"fiche": "À vérifier"}}}, {"type": "Feature", "geometry": {"type": "Point", "coordinates": [-7.82146, 41.090396]}, "properties": {"id": "pt-camp-0034", "name": "Camping Lamego", "theme": "camping", "description": "", "links": [{"label": "🌐 Site officiel", "url": "https://campinglamego.wixsite.com/webpage"}, {"label": "🔎 Infos", "url": "https://www.google.com/search?q=Camping%20Lamego%20Portugal"}], "photos": [], "details": {"fiche": "Référencé"}}}, {"type": "Feature", "geometry": {"type": "Point", "coordinates": [-8.781619, 37.731935]}, "properties": {"id": "pt-camp-0035", "name": "Camping Milfontes", "theme": "camping", "description": "", "links": [{"label": "🌐 Site officiel", "url": "http://www.campingmilfontes.com"}, {"label": "🔎 Infos", "url": "https://www.google.com/search?q=Camping%20Milfontes%20Portugal"}], "photos": [], "details": {"fiche": "Référencé"}}}, {"type": "Feature", "geometry": {"type": "Point", "coordinates": [-8.670018, 37.097051]}, "properties": {"id": "pt-camp-0036", "name": "Camping Militar", "theme": "camping", "description": "Camp site for military personnel only.", "links": [{"label": "🔎 Infos", "url": "https://www.google.com/search?q=Camping%20Militar%20Portugal"}], "photos": [], "details": {"fiche": "À vérifier"}}}, {"type": "Feature", "geometry": {"type": "Point", "coordinates": [-8.189593, 40.025942]}, "properties": {"id": "pt-camp-0037", "name": "Camping O Moinho", "theme": "camping", "description": "", "links": [{"label": "🌐 Site officiel", "url": "https://camping-omoinho.com/"}, {"label": "🔎 Infos", "url": "https://www.google.com/search?q=Camping%20O%20Moinho%20Portugal"}], "photos": [], "details": {"fiche": "Référencé"}}}, {"type": "Feature", "geometry": {"type": "Point", "coordinates": [-9.202353, 39.429668]}, "properties": {"id": "pt-camp-0038", "name": "Camping Orbitur Foz do Arelho", "theme": "camping", "description": "", "links": [{"label": "🔎 Infos", "url": "https://www.google.com/search?q=Camping%20Orbitur%20Foz%20do%20Arelho%20Portugal"}], "photos": [], "details": {"fiche": "À vérifier"}}}, {"type": "Feature", "geometry": {"type": "Point", "coordinates": [-9.056089, 39.598804]}, "properties": {"id": "pt-camp-0039", "name": "Camping Orbitur Valado", "theme": "camping", "description": "", "links": [{"label": "🌐 Site officiel", "url": "https://www.orbitur.pt/pt/destinos/regiao-centro/orbitur-valado"}, {"label": "🔎 Infos", "url": "https://www.google.com/search?q=Camping%20Orbitur%20Valado%20Portugal"}], "photos": [], "details": {"fiche": "Référencé"}}}, {"type": "Feature", "geometry": {"type": "Point", "coordinates": [-9.047358, 39.695299]}, "properties": {"id": "pt-camp-0040", "name": "Camping Paredes de Vitória", "theme": "camping", "description": "", "links": [{"label": "🔎 Infos", "url": "https://www.google.com/search?q=Camping%20Paredes%20de%20Vit%C3%B3ria%20Portugal"}], "photos": [], "details": {"fiche": "À vérifier"}}}, {"type": "Feature", "geometry": {"type": "Point", "coordinates": [-8.336243, 39.637786]}, "properties": {"id": "pt-camp-0041", "name": "Camping Pelinos", "theme": "camping", "description": "Dutch owners, swimming pool", "links": [{"label": "🌐 Site officiel", "url": "https://www.campingpelinos.com/"}, {"label": "🔎 Infos", "url": "https://www.google.com/search?q=Camping%20Pelinos%20Portugal"}], "photos": [], "details": {"fiche": "Référencé"}}}, {"type": "Feature", "geometry": {"type": "Point", "coordinates": [-7.179677, 38.873449]}, "properties": {"id": "pt-camp-0042", "name": "Camping Piedade", "theme": "camping", "description": "O Santuário do Senhor Jesus da Piedade, ou Igreja do Senhor Jesus da Piedade, é uma igreja-santuário cristão em honra do Senhor Jesus da Piedade, localizado na cidade da qual é padroeiro, a cidade de Elvas, em Portugal.", "links": [{"label": "🌐 Site officiel", "url": "https://www.campingpiedade.pt/"}, {"label": "🔗 Wikipédia", "url": "https://pt.wikipedia.org/wiki/Santu%C3%A1rio_do_Senhor_Jesus_da_Piedade"}, {"label": "🔎 Infos", "url": "https://www.google.com/search?q=Camping%20Piedade%20Portugal"}], "photos": ["https://upload.wikimedia.org/wikipedia/commons/thumb/6/6e/Santu%C3%A1rio_do_Senhor_Jesus_da_Piedade_-_Elvas_-_Portugal_%F0%9F%87%B5%F0%9F%87%B9_%2853729349384%29.jpg/960px-Santu%C3%A1rio_do_Senhor_Jesus_da_Piedade_-_Elvas_-_Portugal_%F0%9F%87%B5%F0%9F%87%B9_%2853729349384%29.jpg"], "details": {"fiche": "Référencé"}}}, {"type": "Feature", "geometry": {"type": "Point", "coordinates": [-8.78707, 37.852505]}, "properties": {"id": "pt-camp-0043", "name": "Camping Porto Covo", "theme": "camping", "description": "", "links": [{"label": "🌐 Site officiel", "url": "https://www.campingportocovo.pt/"}, {"label": "🔎 Infos", "url": "https://www.google.com/search?q=Camping%20Porto%20Covo%20Portugal"}], "photos": [], "details": {"fiche": "Référencé"}}}, {"type": "Feature", "geometry": {"type": "Point", "coordinates": [-7.323712, 38.976007]}, "properties": {"id": "pt-camp-0044", "name": "Camping Puro Alentejo", "theme": "camping", "description": "", "links": [{"label": "🌐 Site officiel", "url": "https://campingpuroalentejo.com/"}, {"label": "🔎 Infos", "url": "https://www.google.com/search?q=Camping%20Puro%20Alentejo%20Portugal"}], "photos": [], "details": {"fiche": "Référencé"}}}, {"type": "Feature", "geometry": {"type": "Point", "coordinates": [-8.011117, 41.461755]}, "properties": {"id": "pt-camp-0045", "name": "Camping Quinta Valbom", "theme": "camping", "description": "", "links": [{"label": "🔎 Infos", "url": "https://www.google.com/search?q=Camping%20Quinta%20Valbom%20Portugal"}], "photos": [], "details": {"fiche": "À vérifier"}}}, {"type": "Feature", "geometry": {"type": "Point", "coordinates": [-8.278173, 39.700685]}, "properties": {"id": "pt-camp-0046", "name": "Camping Quinta da Cerejeira", "theme": "camping", "description": "", "links": [{"label": "🌐 Site officiel", "url": "https//www.cerejeira.com"}, {"label": "🔎 Infos", "url": "https://www.google.com/search?q=Camping%20Quinta%20da%20Cerejeira%20Portugal"}], "photos": [], "details": {"fiche": "Référencé"}}}, {"type": "Feature", "geometry": {"type": "Point", "coordinates": [-7.903803, 41.169264]}, "properties": {"id": "pt-camp-0047", "name": "Camping Quinta das Corujeiras", "theme": "camping", "description": "", "links": [{"label": "🔎 Infos", "url": "https://www.google.com/search?q=Camping%20Quinta%20das%20Corujeiras%20Portugal"}], "photos": [], "details": {"fiche": "À vérifier"}}}, {"type": "Feature", "geometry": {"type": "Point", "coordinates": [-8.322282, 39.625212]}, "properties": {"id": "pt-camp-0048", "name": "Camping Redondo", "theme": "camping", "description": "", "links": [{"label": "🌐 Site officiel", "url": "https://www.campingredondo.com/"}, {"label": "🔎 Infos", "url": "https://www.google.com/search?q=Camping%20Redondo%20Portugal"}], "photos": [], "details": {"fiche": "Référencé"}}}, {"type": "Feature", "geometry": {"type": "Point", "coordinates": [-7.601038, 37.144241]}, "properties": {"id": "pt-camp-0049", "name": "Camping Ria Formosa - Cabanas de Tavira", "theme": "camping", "description": "", "links": [{"label": "🌐 Site officiel", "url": "https://www.campingriaformosa.com/"}, {"label": "🔎 Infos", "url": "https://www.google.com/search?q=Camping%20Ria%20Formosa%20-%20Cabanas%20de%20Tavira%20Portugal"}], "photos": [], "details": {"fiche": "Référencé"}}}, {"type": "Feature", "geometry": {"type": "Point", "coordinates": [-8.07804, 40.700101]}, "properties": {"id": "pt-camp-0050", "name": "Camping Rural Naturrosa", "theme": "camping", "description": "", "links": [{"label": "🌐 Site officiel", "url": "https://sites.google.com/site/naturrosa/"}, {"label": "🔎 Infos", "url": "https://www.google.com/search?q=Camping%20Rural%20Naturrosa%20Portugal"}], "photos": [], "details": {"fiche": "Référencé"}}}, {"type": "Feature", "geometry": {"type": "Point", "coordinates": [-8.861956, 41.795935]}, "properties": {"id": "pt-camp-0051", "name": "Camping Sereia da Gelfa", "theme": "camping", "description": "", "links": [{"label": "🌐 Site officiel", "url": "https://www.sereiadagelfa.pt"}, {"label": "🔎 Infos", "url": "https://www.google.com/search?q=Camping%20Sereia%20da%20Gelfa%20Portugal"}], "photos": [], "details": {"fiche": "Référencé"}}}, {"type": "Feature", "geometry": {"type": "Point", "coordinates": [-8.264414, 37.567396]}, "properties": {"id": "pt-camp-0052", "name": "Camping Serra da Bica", "theme": "camping", "description": "", "links": [{"label": "🌐 Site officiel", "url": "https://www.campingserrodabica.com/"}, {"label": "🔎 Infos", "url": "https://www.google.com/search?q=Camping%20Serra%20da%20Bica%20Portugal"}], "photos": [], "details": {"fiche": "Référencé"}}}, {"type": "Feature", "geometry": {"type": "Point", "coordinates": [-8.264633, 37.567541]}, "properties": {"id": "pt-camp-0053", "name": "Camping Serro da Bica", "theme": "camping", "description": "", "links": [{"label": "🌐 Site officiel", "url": "https://www.campingserrodabica.com/"}, {"label": "🔎 Infos", "url": "https://www.google.com/search?q=Camping%20Serro%20da%20Bica%20Portugal"}], "photos": [], "details": {"fiche": "Référencé"}}}, {"type": "Feature", "geometry": {"type": "Point", "coordinates": [-8.033802, 38.49547]}, "properties": {"id": "pt-camp-0054", "name": "Camping São Jorge", "theme": "camping", "description": "", "links": [{"label": "🔎 Infos", "url": "https://www.google.com/search?q=Camping%20S%C3%A3o%20Jorge%20Portugal"}], "photos": [], "details": {"fiche": "À vérifier"}}}, {"type": "Feature", "geometry": {"type": "Point", "coordinates": [-7.921875, 40.365091]}, "properties": {"id": "pt-camp-0055", "name": "Camping Tapadinho", "theme": "camping", "description": "", "links": [{"label": "🌐 Site officiel", "url": "https://www.campingtapadinho.com/"}, {"label": "🔎 Infos", "url": "https://www.google.com/search?q=Camping%20Tapadinho%20Portugal"}], "photos": [], "details": {"fiche": "Référencé"}}}, {"type": "Feature", "geometry": {"type": "Point", "coordinates": [-8.733982, 37.102665]}, "properties": {"id": "pt-camp-0056", "name": "Camping Turiscampo", "theme": "camping", "description": "", "links": [{"label": "🌐 Site officiel", "url": "http://www.turiscampo.com/"}, {"label": "🔎 Infos", "url": "https://www.google.com/search?q=Camping%20Turiscampo%20Portugal"}], "photos": [], "details": {"fiche": "Référencé"}}}, {"type": "Feature", "geometry": {"type": "Point", "coordinates": [-8.901057, 38.649384]}, "properties": {"id": "pt-camp-0057", "name": "Camping Vasco da Gama", "theme": "camping", "description": "", "links": [{"label": "🔎 Infos", "url": "https://www.google.com/search?q=Camping%20Vasco%20da%20Gama%20Portugal"}], "photos": [], "details": {"fiche": "À vérifier"}}}, {"type": "Feature", "geometry": {"type": "Point", "coordinates": [-7.541933, 40.520132]}, "properties": {"id": "pt-camp-0058", "name": "Camping das Cegunhas", "theme": "camping", "description": "", "links": [{"label": "🔎 Infos", "url": "https://www.google.com/search?q=Camping%20das%20Cegunhas%20Portugal"}], "photos": [], "details": {"fiche": "À vérifier"}}}, {"type": "Feature", "geometry": {"type": "Point", "coordinates": [-8.695571, 41.888275]}, "properties": {"id": "pt-camp-0059", "name": "Camping de Covas", "theme": "camping", "description": "", "links": [{"label": "🌐 Site officiel", "url": "https://www.parquecampismocovas.com"}, {"label": "🔎 Infos", "url": "https://www.google.com/search?q=Camping%20de%20Covas%20Portugal"}], "photos": [], "details": {"altitude": "130 m", "altitude_n": 130, "fiche": "Référencé"}}}, {"type": "Feature", "geometry": {"type": "Point", "coordinates": [-7.448187, 40.388976]}, "properties": {"id": "pt-camp-0060", "name": "Campingbeijames", "theme": "camping", "description": "", "links": [{"label": "🌐 Site officiel", "url": "https://www.campingbeijames.com"}, {"label": "🔎 Infos", "url": "https://www.google.com/search?q=Campingbeijames%20Portugal"}], "photos": [], "details": {"fiche": "Référencé"}}}, {"type": "Feature", "geometry": {"type": "Point", "coordinates": [-7.957813, 41.485564]}, "properties": {"id": "pt-camp-0061", "name": "Campismo Arco", "theme": "camping", "description": "", "links": [{"label": "🌐 Site officiel", "url": "https://www.campismo-arco.com/index.html"}, {"label": "🔎 Infos", "url": "https://www.google.com/search?q=Campismo%20Arco%20Portugal"}], "photos": [], "details": {"fiche": "Référencé"}}}, {"type": "Feature", "geometry": {"type": "Point", "coordinates": [-7.58892, 40.328621]}, "properties": {"id": "pt-camp-0062", "name": "Campismo do Covão da Ametade", "theme": "camping", "description": "Official campsite not in use anymore. No services, no toilets, generally poor condition of buildings. Free camping allowed. Entry of vehicles not possible. In summer river is dry.", "links": [{"label": "🔎 Infos", "url": "https://www.google.com/search?q=Campismo%20do%20Cov%C3%A3o%20da%20Ametade%20Portugal"}], "photos": [], "details": {"fiche": "À vérifier"}}}, {"type": "Feature", "geometry": {"type": "Point", "coordinates": [-9.070022, 38.549113]}, "properties": {"id": "pt-camp-0063", "name": "Campismo-Parque Verde", "theme": "camping", "description": "", "links": [{"label": "🔎 Infos", "url": "https://www.google.com/search?q=Campismo-Parque%20Verde%20Portugal"}], "photos": [], "details": {"fiche": "À vérifier"}}}, {"type": "Feature", "geometry": {"type": "Point", "coordinates": [-9.070613, 38.521911]}, "properties": {"id": "pt-camp-0064", "name": "Campo Base Sesimbra Natura Park", "theme": "camping", "description": "", "links": [{"label": "🔎 Infos", "url": "https://www.google.com/search?q=Campo%20Base%20Sesimbra%20Natura%20Park%20Portugal"}], "photos": [], "details": {"fiche": "À vérifier"}}}, {"type": "Feature", "geometry": {"type": "Point", "coordinates": [-8.578254, 40.341044]}, "properties": {"id": "pt-camp-0065", "name": "Campo Escola Fonte Dom Pedro", "theme": "camping", "description": "", "links": [{"label": "🔎 Infos", "url": "https://www.google.com/search?q=Campo%20Escola%20Fonte%20Dom%20Pedro%20Portugal"}], "photos": [], "details": {"fiche": "À vérifier"}}}, {"type": "Feature", "geometry": {"type": "Point", "coordinates": [-8.399414, 41.533772]}, "properties": {"id": "pt-camp-0066", "name": "Campo Escola de Fraião", "theme": "camping", "description": "", "links": [{"label": "🔎 Infos", "url": "https://www.google.com/search?q=Campo%20Escola%20de%20Frai%C3%A3o%20Portugal"}], "photos": [], "details": {"fiche": "À vérifier"}}}, {"type": "Feature", "geometry": {"type": "Point", "coordinates": [-8.232618, 41.52763]}, "properties": {"id": "pt-camp-0067", "name": "Campo Escola de Garfe", "theme": "camping", "description": "", "links": [{"label": "🔎 Infos", "url": "https://www.google.com/search?q=Campo%20Escola%20de%20Garfe%20Portugal"}], "photos": [], "details": {"fiche": "À vérifier"}}}, {"type": "Feature", "geometry": {"type": "Point", "coordinates": [-8.387472, 41.413756]}, "properties": {"id": "pt-camp-0068", "name": "Campo Escutista Padre José Dias Sampaio 558-Pedome", "theme": "camping", "description": "", "links": [{"label": "🔎 Infos", "url": "https://www.google.com/search?q=Campo%20Escutista%20Padre%20Jos%C3%A9%20Dias%20Sampaio%20558-Pedome%20Portugal"}], "photos": [], "details": {"fiche": "À vérifier"}}}, {"type": "Feature", "geometry": {"type": "Point", "coordinates": [-9.373609, 38.976256]}, "properties": {"id": "pt-camp-0069", "name": "Campo Escutista de Santo Isidoro", "theme": "camping", "description": "Neste campo podes acampar com toda a comodidade, temos WC, uma arena, um pequeno abrigo, um local próprio para churrasco e um altar para Eucaristia. Existe ainda uma parede de escalada, contudo terás de ser tu a trazer o material.", "links": [{"label": "🌐 Site officiel", "url": "https://1103.escutismo.pt/"}, {"label": "🔎 Infos", "url": "https://www.google.com/search?q=Campo%20Escutista%20de%20Santo%20Isidoro%20Portugal"}], "photos": [], "details": {"fiche": "Référencé"}}}, {"type": "Feature", "geometry": {"type": "Point", "coordinates": [-7.975544, 40.273701]}, "properties": {"id": "pt-camp-0070", "name": "Campo de Actividades Escutistas Meda da Serpente", "theme": "camping", "description": "", "links": [{"label": "🔎 Infos", "url": "https://www.google.com/search?q=Campo%20de%20Actividades%20Escutistas%20Meda%20da%20Serpente%20Portugal"}], "photos": [], "details": {"fiche": "À vérifier"}}}, {"type": "Feature", "geometry": {"type": "Point", "coordinates": [-8.192384, 41.459165]}, "properties": {"id": "pt-camp-0071", "name": "Campo de Atividades Escutistas de Golães", "theme": "camping", "description": "", "links": [{"label": "🔎 Infos", "url": "https://www.google.com/search?q=Campo%20de%20Atividades%20Escutistas%20de%20Gol%C3%A3es%20Portugal"}], "photos": [], "details": {"fiche": "À vérifier"}}}, {"type": "Feature", "geometry": {"type": "Point", "coordinates": [-8.620344, 40.395657]}, "properties": {"id": "pt-camp-0072", "name": "Campo de Atividades e Formação Escutista", "theme": "camping", "description": "", "links": [{"label": "🔎 Infos", "url": "https://www.google.com/search?q=Campo%20de%20Atividades%20e%20Forma%C3%A7%C3%A3o%20Escutista%20Portugal"}], "photos": [], "details": {"fiche": "À vérifier"}}}, {"type": "Feature", "geometry": {"type": "Point", "coordinates": [-8.364155, 41.435373]}, "properties": {"id": "pt-camp-0073", "name": "Campo de Formação Escutista O Paraiso dos Escuteiros", "theme": "camping", "description": "", "links": [{"label": "🔎 Infos", "url": "https://www.google.com/search?q=Campo%20de%20Forma%C3%A7%C3%A3o%20Escutista%20O%20Paraiso%20dos%20Escuteiros%20Portugal"}], "photos": [], "details": {"fiche": "À vérifier"}}}, {"type": "Feature", "geometry": {"type": "Point", "coordinates": [-8.264632, 40.156447]}, "properties": {"id": "pt-camp-0074", "name": "Campo de Férias Conde de Foz de Arouce", "theme": "camping", "description": "", "links": [{"label": "🔎 Infos", "url": "https://www.google.com/search?q=Campo%20de%20F%C3%A9rias%20Conde%20de%20Foz%20de%20Arouce%20Portugal"}], "photos": [], "details": {"fiche": "À vérifier"}}}, {"type": "Feature", "geometry": {"type": "Point", "coordinates": [-7.38522, 39.426515]}, "properties": {"id": "pt-camp-0075", "name": "Campscape Beira Marvao", "theme": "camping", "description": "adults only (16+) – check-in before 19:00", "links": [{"label": "🌐 Site officiel", "url": "https://campscapebeiramarvao.com/"}, {"label": "🔎 Infos", "url": "https://www.google.com/search?q=Campscape%20Beira%20Marvao%20Portugal"}], "photos": [], "details": {"fiche": "Référencé"}}}, {"type": "Feature", "geometry": {"type": "Point", "coordinates": [-17.062508, 32.772532]}, "properties": {"id": "pt-camp-0076", "name": "Caramujo", "theme": "camping", "description": "", "links": [{"label": "🌐 Site officiel", "url": "https://www.madeiracamping.com/caramujo/"}, {"label": "🔎 Infos", "url": "https://www.google.com/search?q=Caramujo%20Portugal"}], "photos": [], "details": {"fiche": "Référencé"}}}, {"type": "Feature", "geometry": {"type": "Point", "coordinates": [-16.88041, 32.695748]}, "properties": {"id": "pt-camp-0077", "name": "Carreiras", "theme": "camping", "description": "", "links": [{"label": "🔎 Infos", "url": "https://www.google.com/search?q=Carreiras%20Portugal"}], "photos": [], "details": {"altitude": "1125 m", "altitude_n": 1125, "fiche": "À vérifier"}}}, {"type": "Feature", "geometry": {"type": "Point", "coordinates": [-7.951243, 41.468609]}, "properties": {"id": "pt-camp-0078", "name": "Casa Fontelheira", "theme": "camping", "description": "", "links": [{"label": "🌐 Site officiel", "url": "https://www.casafontelheira.com/"}, {"label": "🔎 Infos", "url": "https://www.google.com/search?q=Casa%20Fontelheira%20Portugal"}], "photos": [], "details": {"fiche": "Référencé"}}}, {"type": "Feature", "geometry": {"type": "Point", "coordinates": [-6.940684, 41.550994]}, "properties": {"id": "pt-camp-0079", "name": "Casa VP", "theme": "camping", "description": "", "links": [{"label": "🔎 Infos", "url": "https://www.google.com/search?q=Casa%20VP%20Portugal"}], "photos": [], "details": {"fiche": "À vérifier"}}}, {"type": "Feature", "geometry": {"type": "Point", "coordinates": [-8.684417, 37.421001]}, "properties": {"id": "pt-camp-0080", "name": "Casas Novas de Palmeira", "theme": "camping", "description": "", "links": [{"label": "🌐 Site officiel", "url": "https://www.casasnovasdapalmeira.com"}, {"label": "🔎 Infos", "url": "https://www.google.com/search?q=Casas%20Novas%20de%20Palmeira%20Portugal"}], "photos": [], "details": {"fiche": "Référencé"}}}, {"type": "Feature", "geometry": {"type": "Point", "coordinates": [-8.256618, 39.687474]}, "properties": {"id": "pt-camp-0081", "name": "Centro de Actividades Escutistas de Ferreira do Zêzere", "theme": "camping", "description": "", "links": [{"label": "🌐 Site officiel", "url": "https://escutismo.pt/centros/centros-e-campos/pag:centros/51"}, {"label": "🔎 Infos", "url": "https://www.google.com/search?q=Centro%20de%20Actividades%20Escutistas%20de%20Ferreira%20do%20Z%C3%AAzere%20Portugal"}], "photos": [], "details": {"fiche": "Référencé"}}}, {"type": "Feature", "geometry": {"type": "Point", "coordinates": [-8.112585, 40.151864]}, "properties": {"id": "pt-camp-0082", "name": "Centro de Atividades Escotistas Capital do Ceira", "theme": "camping", "description": "", "links": [{"label": "🔎 Infos", "url": "https://www.google.com/search?q=Centro%20de%20Atividades%20Escotistas%20Capital%20do%20Ceira%20Portugal"}], "photos": [], "details": {"fiche": "À vérifier"}}}, {"type": "Feature", "geometry": {"type": "Point", "coordinates": [-7.313653, 41.244739]}, "properties": {"id": "pt-camp-0083", "name": "Centro de Formação CNE – Chefe Zeferino Bastos", "theme": "camping", "description": "", "links": [{"label": "🔎 Infos", "url": "https://www.google.com/search?q=Centro%20de%20Forma%C3%A7%C3%A3o%20CNE%20%E2%80%93%20Chefe%20Zeferino%20Bastos%20Portugal"}], "photos": [], "details": {"fiche": "À vérifier"}}}, {"type": "Feature", "geometry": {"type": "Point", "coordinates": [-6.860463, 41.84578]}, "properties": {"id": "pt-camp-0084", "name": "Cepo Verde", "theme": "camping", "description": "", "links": [{"label": "🌐 Site officiel", "url": "https://www.montesinho.com/en/cepoverde-campismo"}, {"label": "🔎 Infos", "url": "https://www.google.com/search?q=Cepo%20Verde%20Portugal"}], "photos": [], "details": {"fiche": "Référencé"}}}, {"type": "Feature", "geometry": {"type": "Point", "coordinates": [-16.887024, 32.72206]}, "properties": {"id": "pt-camp-0085", "name": "Chão das Feiteiras", "theme": "camping", "description": "", "links": [{"label": "🌐 Site officiel", "url": "https://www.madeiracamping.com/feiteiras/"}, {"label": "🔎 Infos", "url": "https://www.google.com/search?q=Ch%C3%A3o%20das%20Feiteiras%20Portugal"}], "photos": [], "details": {"fiche": "Référencé"}}}, {"type": "Feature", "geometry": {"type": "Point", "coordinates": [-16.846376, 32.716067]}, "properties": {"id": "pt-camp-0086", "name": "Chão do Pasto", "theme": "camping", "description": "", "links": [{"label": "🌐 Site officiel", "url": "https://www.madeiracamping.com/chao-do-pasto/"}, {"label": "🔎 Infos", "url": "https://www.google.com/search?q=Ch%C3%A3o%20do%20Pasto%20Portugal"}], "photos": [], "details": {"altitude": "965 m", "altitude_n": 965, "fiche": "Référencé"}}}, {"type": "Feature", "geometry": {"type": "Point", "coordinates": [-16.876416, 32.718357]}, "properties": {"id": "pt-camp-0087", "name": "Chão do Pasto/Cruzes de Baixo", "theme": "camping", "description": "", "links": [{"label": "🌐 Site officiel", "url": "https://www.madeiracamping.com/chao-do-pasto/"}, {"label": "🔎 Infos", "url": "https://www.google.com/search?q=Ch%C3%A3o%20do%20Pasto/Cruzes%20de%20Baixo%20Portugal"}], "photos": [], "details": {"fiche": "Référencé"}}}, {"type": "Feature", "geometry": {"type": "Point", "coordinates": [-17.016468, 32.759887]}, "properties": {"id": "pt-camp-0088", "name": "Chão dos Louros", "theme": "camping", "description": "", "links": [{"label": "🌐 Site officiel", "url": "https://www.madeiracamping.com/chao-dos-louros/"}, {"label": "🔎 Infos", "url": "https://www.google.com/search?q=Ch%C3%A3o%20dos%20Louros%20Portugal"}], "photos": [], "details": {"fiche": "Référencé"}}}, {"type": "Feature", "geometry": {"type": "Point", "coordinates": [-8.778042, 38.125305]}, "properties": {"id": "pt-camp-0089", "name": "Clube de Campismo de Lisboa", "theme": "camping", "description": "", "links": [{"label": "🔎 Infos", "url": "https://www.google.com/search?q=Clube%20de%20Campismo%20de%20Lisboa%20Portugal"}], "photos": [], "details": {"fiche": "À vérifier"}}}, {"type": "Feature", "geometry": {"type": "Point", "coordinates": [-9.227439, 38.632958]}, "properties": {"id": "pt-camp-0090", "name": "Clube de Campismo do Concelho de Almada", "theme": "camping", "description": "", "links": [{"label": "🔎 Infos", "url": "https://www.google.com/search?q=Clube%20de%20Campismo%20do%20Concelho%20de%20Almada%20Portugal"}], "photos": [], "details": {"fiche": "À vérifier"}}}, {"type": "Feature", "geometry": {"type": "Point", "coordinates": [-9.124748, 39.523896]}, "properties": {"id": "pt-camp-0091", "name": "Colina do Sol", "theme": "camping", "description": "", "links": [{"label": "🔎 Infos", "url": "https://www.google.com/search?q=Colina%20do%20Sol%20Portugal"}], "photos": [], "details": {"fiche": "À vérifier"}}}, {"type": "Feature", "geometry": {"type": "Point", "coordinates": [-8.090564, 39.471767]}, "properties": {"id": "pt-camp-0092", "name": "Colinas do Tejo", "theme": "camping", "description": "", "links": [{"label": "🔎 Infos", "url": "https://www.google.com/search?q=Colinas%20do%20Tejo%20Portugal"}], "photos": [], "details": {"fiche": "À vérifier"}}}, {"type": "Feature", "geometry": {"type": "Point", "coordinates": [-8.399211, 37.213975]}, "properties": {"id": "pt-camp-0093", "name": "Conde lodge", "theme": "camping", "description": "", "links": [{"label": "🔎 Infos", "url": "https://www.google.com/search?q=Conde%20lodge%20Portugal"}], "photos": [], "details": {"fiche": "À vérifier"}}}, {"type": "Feature", "geometry": {"type": "Point", "coordinates": [-8.752623, 40.599611]}, "properties": {"id": "pt-camp-0094", "name": "Costa Nova", "theme": "camping", "description": "", "links": [{"label": "🌐 Site officiel", "url": "https://campingcostanova.com/"}, {"label": "🔎 Infos", "url": "https://www.google.com/search?q=Costa%20Nova%20Portugal"}], "photos": [], "details": {"fiche": "Référencé"}}}, {"type": "Feature", "geometry": {"type": "Point", "coordinates": [-8.785227, 37.857183]}, "properties": {"id": "pt-camp-0095", "name": "Costa do Vizir Beach Village", "theme": "camping", "description": "", "links": [{"label": "🌐 Site officiel", "url": "https://www.costadovizir.com/"}, {"label": "🔎 Infos", "url": "https://www.google.com/search?q=Costa%20do%20Vizir%20Beach%20Village%20Portugal"}], "photos": [], "details": {"fiche": "Référencé"}}}, {"type": "Feature", "geometry": {"type": "Point", "coordinates": [-17.184166, 32.788754]}, "properties": {"id": "pt-camp-0096", "name": "Cruzinhas", "theme": "camping", "description": "", "links": [{"label": "🔎 Infos", "url": "https://www.google.com/search?q=Cruzinhas%20Portugal"}], "photos": [], "details": {"fiche": "À vérifier"}}}, {"type": "Feature", "geometry": {"type": "Point", "coordinates": [-7.571221, 40.491003]}, "properties": {"id": "pt-camp-0097", "name": "Curral do Negro", "theme": "camping", "description": "", "links": [{"label": "🌐 Site officiel", "url": "https://www.curraldonegro.pt/"}, {"label": "🔎 Infos", "url": "https://www.google.com/search?q=Curral%20do%20Negro%20Portugal"}], "photos": [], "details": {"fiche": "Référencé"}}}, {"type": "Feature", "geometry": {"type": "Point", "coordinates": [-6.284876, 41.492336]}, "properties": {"id": "pt-camp-0098", "name": "Douro Camping", "theme": "camping", "description": "", "links": [{"label": "🔎 Infos", "url": "https://www.google.com/search?q=Douro%20Camping%20Portugal"}], "photos": [], "details": {"altitude": "655 m", "altitude_n": 655, "fiche": "À vérifier"}}}, {"type": "Feature", "geometry": {"type": "Point", "coordinates": [-8.670386, 39.301768]}, "properties": {"id": "pt-camp-0099", "name": "Ebenézer - Rua Gil Conceição Escapa", "theme": "camping", "description": "", "links": [{"label": "🔎 Infos", "url": "https://www.google.com/search?q=Eben%C3%A9zer%20-%20Rua%20Gil%20Concei%C3%A7%C3%A3o%20Escapa%20Portugal"}], "photos": [], "details": {"fiche": "À vérifier"}}}, {"type": "Feature", "geometry": {"type": "Point", "coordinates": [-7.494314, 38.445591]}, "properties": {"id": "pt-camp-0100", "name": "Eco Villas Escudeira", "theme": "camping", "description": "", "links": [{"label": "🔎 Infos", "url": "https://www.google.com/search?q=Eco%20Villas%20Escudeira%20Portugal"}], "photos": [], "details": {"fiche": "À vérifier"}}}, {"type": "Feature", "geometry": {"type": "Point", "coordinates": [-8.929034, 38.500552]}, "properties": {"id": "pt-camp-0101", "name": "Ecoparque do Outão", "theme": "camping", "description": "", "links": [{"label": "🔎 Infos", "url": "https://www.google.com/search?q=Ecoparque%20do%20Out%C3%A3o%20Portugal"}], "photos": [], "details": {"fiche": "À vérifier"}}}, {"type": "Feature", "geometry": {"type": "Point", "coordinates": [-8.128262, 41.700675]}, "properties": {"id": "pt-camp-0102", "name": "Ermida Gerês Camping", "theme": "camping", "description": "", "links": [{"label": "🔎 Infos", "url": "https://www.google.com/search?q=Ermida%20Ger%C3%AAs%20Camping%20Portugal"}], "photos": [], "details": {"fiche": "À vérifier"}}}, {"type": "Feature", "geometry": {"type": "Point", "coordinates": [-17.076818, 32.769182]}, "properties": {"id": "pt-camp-0103", "name": "Estanquinhos", "theme": "camping", "description": "", "links": [{"label": "🌐 Site officiel", "url": "https://www.madeiracamping.com/estanquinhos/"}, {"label": "🔎 Infos", "url": "https://www.google.com/search?q=Estanquinhos%20Portugal"}], "photos": [], "details": {"fiche": "Référencé"}}}, {"type": "Feature", "geometry": {"type": "Point", "coordinates": [-17.083802, 32.773001]}, "properties": {"id": "pt-camp-0104", "name": "Estanquinhos Contes Ruivas", "theme": "camping", "description": "", "links": [{"label": "🔎 Infos", "url": "https://www.google.com/search?q=Estanquinhos%20Contes%20Ruivas%20Portugal"}], "photos": [], "details": {"fiche": "À vérifier"}}}, {"type": "Feature", "geometry": {"type": "Point", "coordinates": [-17.141119, 32.809562]}, "properties": {"id": "pt-camp-0105", "name": "Fanal", "theme": "camping", "description": "", "links": [{"label": "🌐 Site officiel", "url": "https://www.madeiracamping.com/fanal/"}, {"label": "🔎 Infos", "url": "https://www.google.com/search?q=Fanal%20Portugal"}], "photos": [], "details": {"fiche": "Référencé"}}}, {"type": "Feature", "geometry": {"type": "Point", "coordinates": [-9.139952, 38.446457]}, "properties": {"id": "pt-camp-0106", "name": "Fauna Sesimbra", "theme": "camping", "description": "Basic camp site with self check in", "links": [{"label": "🌐 Site officiel", "url": "https://www.instagram.com/faunasesimbra"}, {"label": "🔎 Infos", "url": "https://www.google.com/search?q=Fauna%20Sesimbra%20Portugal"}], "photos": [], "details": {"fiche": "Référencé"}}}, {"type": "Feature", "geometry": {"type": "Point", "coordinates": [-8.262747, 40.593978]}, "properties": {"id": "pt-camp-0107", "name": "Fonte Frade", "theme": "camping", "description": "", "links": [{"label": "🔎 Infos", "url": "https://www.google.com/search?q=Fonte%20Frade%20Portugal"}], "photos": [], "details": {"fiche": "À vérifier"}}}, {"type": "Feature", "geometry": {"type": "Point", "coordinates": [-17.181626, 32.792173]}, "properties": {"id": "pt-camp-0108", "name": "Fonte do Bispo", "theme": "camping", "description": "", "links": [{"label": "🌐 Site officiel", "url": "https://www.madeiracamping.com/fonte-do-bispo/"}, {"label": "🔎 Infos", "url": "https://www.google.com/search?q=Fonte%20do%20Bispo%20Portugal"}], "photos": [], "details": {"fiche": "Référencé"}}}, {"type": "Feature", "geometry": {"type": "Point", "coordinates": [-8.245078, 41.536132]}, "properties": {"id": "pt-camp-0109", "name": "GarfePark Camping", "theme": "camping", "description": "", "links": [{"label": "🌐 Site officiel", "url": "https://garfeparkcamping.weebly.com"}, {"label": "🔎 Infos", "url": "https://www.google.com/search?q=GarfePark%20Camping%20Portugal"}], "photos": [], "details": {"fiche": "Référencé"}}}, {"type": "Feature", "geometry": {"type": "Point", "coordinates": [-17.115437, 32.802687]}, "properties": {"id": "pt-camp-0110", "name": "Gaya Camping", "theme": "camping", "description": "", "links": [{"label": "🌐 Site officiel", "url": "https://gayacamp-5cbgtqp9.manus.space/"}, {"label": "🔎 Infos", "url": "https://www.google.com/search?q=Gaya%20Camping%20Portugal"}], "photos": [], "details": {"fiche": "Référencé"}}}, {"type": "Feature", "geometry": {"type": "Point", "coordinates": [-8.041477, 41.708296]}, "properties": {"id": "pt-camp-0111", "name": "Gerês Greenpark", "theme": "camping", "description": "", "links": [{"label": "🌐 Site officiel", "url": "https://geresgreenpark.pt/"}, {"label": "🔎 Infos", "url": "https://www.google.com/search?q=Ger%C3%AAs%20Greenpark%20Portugal"}], "photos": [], "details": {"fiche": "Référencé"}}}, {"type": "Feature", "geometry": {"type": "Point", "coordinates": [-7.524763, 38.954336]}, "properties": {"id": "pt-camp-0112", "name": "Glamping Skies", "theme": "camping", "description": "", "links": [{"label": "🌐 Site officiel", "url": "https://glampingskies.com"}, {"label": "🔎 Infos", "url": "https://www.google.com/search?q=Glamping%20Skies%20Portugal"}], "photos": [], "details": {"fiche": "Référencé"}}}, {"type": "Feature", "geometry": {"type": "Point", "coordinates": [-8.302494, 40.835568]}, "properties": {"id": "pt-camp-0113", "name": "Greenval Parque", "theme": "camping", "description": "", "links": [{"label": "🔎 Infos", "url": "https://www.google.com/search?q=Greenval%20Parque%20Portugal"}], "photos": [], "details": {"fiche": "À vérifier"}}}, {"type": "Feature", "geometry": {"type": "Point", "coordinates": [-8.113593, 40.153949]}, "properties": {"id": "pt-camp-0114", "name": "Góis Camping", "theme": "camping", "description": "", "links": [{"label": "🌐 Site officiel", "url": "https://goiscamping.com"}, {"label": "🔎 Infos", "url": "https://www.google.com/search?q=G%C3%B3is%20Camping%20Portugal"}], "photos": [], "details": {"fiche": "Référencé"}}}, {"type": "Feature", "geometry": {"type": "Point", "coordinates": [-7.084611, 40.938341]}, "properties": {"id": "pt-camp-0115", "name": "Hortas da Saboia", "theme": "camping", "description": "", "links": [{"label": "🔎 Infos", "url": "https://www.google.com/search?q=Hortas%20da%20Saboia%20Portugal"}], "photos": [], "details": {"fiche": "À vérifier"}}}, {"type": "Feature", "geometry": {"type": "Point", "coordinates": [-9.226338, 39.414826]}, "properties": {"id": "pt-camp-0116", "name": "Huttopia Óbidos", "theme": "camping", "description": "", "links": [{"label": "🌐 Site officiel", "url": "https://europe.huttopia.com/pt-pt/site/lagoa-de-obidos/"}, {"label": "🔎 Infos", "url": "https://www.google.com/search?q=Huttopia%20%C3%93bidos%20Portugal"}], "photos": [], "details": {"fiche": "Référencé"}}}, {"type": "Feature", "geometry": {"type": "Point", "coordinates": [-9.225456, 39.415392]}, "properties": {"id": "pt-camp-0117", "name": "Huttopia Óbidos", "theme": "camping", "description": "", "links": [{"label": "🔎 Infos", "url": "https://www.google.com/search?q=Huttopia%20%C3%93bidos%20Portugal"}], "photos": [], "details": {"fiche": "À vérifier"}}}, {"type": "Feature", "geometry": {"type": "Point", "coordinates": [-9.027761, 39.76317]}, "properties": {"id": "pt-camp-0118", "name": "Inatel São Pedro de Moel", "theme": "camping", "description": "", "links": [{"label": "🔎 Infos", "url": "https://www.google.com/search?q=Inatel%20S%C3%A3o%20Pedro%20de%20Moel%20Portugal"}], "photos": [], "details": {"fiche": "À vérifier"}}}, {"type": "Feature", "geometry": {"type": "Point", "coordinates": [-8.646371, 41.108588]}, "properties": {"id": "pt-camp-0119", "name": "Istas Garden", "theme": "camping", "description": "", "links": [{"label": "🌐 Site officiel", "url": "https://istasgarden.com/pt/inicio/"}, {"label": "🔎 Infos", "url": "https://www.google.com/search?q=Istas%20Garden%20Portugal"}], "photos": [], "details": {"fiche": "Référencé"}}}, {"type": "Feature", "geometry": {"type": "Point", "coordinates": [-7.600657, 37.142967]}, "properties": {"id": "pt-camp-0120", "name": "Kampaoh Tavira", "theme": "camping", "description": "", "links": [{"label": "🌐 Site officiel", "url": "https://pt.kampaoh.com/camping-ria-formosa-tavira/"}, {"label": "🔎 Infos", "url": "https://www.google.com/search?q=Kampaoh%20Tavira%20Portugal"}], "photos": [], "details": {"fiche": "Référencé"}}}, {"type": "Feature", "geometry": {"type": "Point", "coordinates": [-8.974654, 39.697193]}, "properties": {"id": "pt-camp-0121", "name": "Landshause", "theme": "camping", "description": "", "links": [{"label": "🌐 Site officiel", "url": "http://www.landshause.com"}, {"label": "🔎 Infos", "url": "https://www.google.com/search?q=Landshause%20Portugal"}], "photos": [], "details": {"fiche": "Référencé"}}}, {"type": "Feature", "geometry": {"type": "Point", "coordinates": [-8.318321, 41.824878]}, "properties": {"id": "pt-camp-0122", "name": "Lima Escape", "theme": "camping", "description": "", "links": [{"label": "🌐 Site officiel", "url": "https://www.lima-escape.pt/"}, {"label": "🔎 Infos", "url": "https://www.google.com/search?q=Lima%20Escape%20Portugal"}], "photos": [], "details": {"fiche": "Référencé"}}}, {"type": "Feature", "geometry": {"type": "Point", "coordinates": [-9.205857, 38.724312]}, "properties": {"id": "pt-camp-0123", "name": "Lisboa Camping", "theme": "camping", "description": "", "links": [{"label": "🌐 Site officiel", "url": "https://lisboacamping.com/"}, {"label": "🔎 Infos", "url": "https://www.google.com/search?q=Lisboa%20Camping%20Portugal"}], "photos": [], "details": {"fiche": "Référencé"}}}, {"type": "Feature", "geometry": {"type": "Point", "coordinates": [-8.103535, 38.183901]}, "properties": {"id": "pt-camp-0124", "name": "Markadia", "theme": "camping", "description": "", "links": [{"label": "🌐 Site officiel", "url": "https://www.markadia.net"}, {"label": "🔎 Infos", "url": "https://www.google.com/search?q=Markadia%20Portugal"}], "photos": [], "details": {"fiche": "Référencé"}}}, {"type": "Feature", "geometry": {"type": "Point", "coordinates": [-8.673664, 39.454773]}, "properties": {"id": "pt-camp-0125", "name": "Marsipel", "theme": "camping", "description": "Doesn’t exist 05/25", "links": [{"label": "🔎 Infos", "url": "https://www.google.com/search?q=Marsipel%20Portugal"}], "photos": [], "details": {"fiche": "À vérifier"}}}, {"type": "Feature", "geometry": {"type": "Point", "coordinates": [-16.888998, 32.704316]}, "properties": {"id": "pt-camp-0126", "name": "Montado do Pereiro", "theme": "camping", "description": "", "links": [{"label": "🌐 Site officiel", "url": "https://www.madeiracamping.com/montado-do-pereiro/"}, {"label": "🔎 Infos", "url": "https://www.google.com/search?q=Montado%20do%20Pereiro%20Portugal"}], "photos": [], "details": {"fiche": "Référencé"}}}, {"type": "Feature", "geometry": {"type": "Point", "coordinates": [-8.144708, 39.099199]}, "properties": {"id": "pt-camp-0127", "name": "Montargil", "theme": "camping", "description": "", "links": [{"label": "🔎 Infos", "url": "https://www.google.com/search?q=Montargil%20Portugal"}], "photos": [], "details": {"fiche": "À vérifier"}}}, {"type": "Feature", "geometry": {"type": "Point", "coordinates": [-8.485341, 38.017211]}, "properties": {"id": "pt-camp-0128", "name": "Monte Naturista O Barão", "theme": "camping", "description": "", "links": [{"label": "🌐 Site officiel", "url": "https://montenaturista.com/"}, {"label": "🔎 Infos", "url": "https://www.google.com/search?q=Monte%20Naturista%20O%20Bar%C3%A3o%20Portugal"}], "photos": [], "details": {"fiche": "Référencé"}}}, {"type": "Feature", "geometry": {"type": "Point", "coordinates": [-6.912146, 41.595819]}, "properties": {"id": "pt-camp-0129", "name": "Monte do Azibo Resort", "theme": "camping", "description": "", "links": [{"label": "🌐 Site officiel", "url": "https://www.montedoaziboresort.com"}, {"label": "🔎 Infos", "url": "https://www.google.com/search?q=Monte%20do%20Azibo%20Resort%20Portugal"}], "photos": [], "details": {"fiche": "Référencé"}}}, {"type": "Feature", "geometry": {"type": "Point", "coordinates": [-8.827819, 39.163788]}, "properties": {"id": "pt-camp-0130", "name": "My Camp - Quinta da Broeira", "theme": "camping", "description": "", "links": [{"label": "🔎 Infos", "url": "https://www.google.com/search?q=My%20Camp%20-%20Quinta%20da%20Broeira%20Portugal"}], "photos": [], "details": {"fiche": "À vérifier"}}}, {"type": "Feature", "geometry": {"type": "Point", "coordinates": [-8.679676, 41.667818]}, "properties": {"id": "pt-camp-0131", "name": "NaturViana", "theme": "camping", "description": "Naturist campsite", "links": [{"label": "🌐 Site officiel", "url": "https://www.naturviana.com/"}, {"label": "🔎 Infos", "url": "https://www.google.com/search?q=NaturViana%20Portugal"}], "photos": [], "details": {"fiche": "Référencé"}}}, {"type": "Feature", "geometry": {"type": "Point", "coordinates": [-17.116757, 32.80235]}, "properties": {"id": "pt-camp-0132", "name": "Natureinnmadeira", "theme": "camping", "description": "", "links": [{"label": "🌐 Site officiel", "url": "https://www.natureinnmadeira.com/"}, {"label": "🔎 Infos", "url": "https://www.google.com/search?q=Natureinnmadeira%20Portugal"}], "photos": [], "details": {"fiche": "Référencé"}}}, {"type": "Feature", "geometry": {"type": "Point", "coordinates": [-8.472925, 41.521969]}, "properties": {"id": "pt-camp-0133", "name": "O Apeadeiro - Centro Escutista de Braga", "theme": "camping", "description": "", "links": [{"label": "🔎 Infos", "url": "https://www.google.com/search?q=O%20Apeadeiro%20-%20Centro%20Escutista%20de%20Braga%20Portugal"}], "photos": [], "details": {"fiche": "À vérifier"}}}, {"type": "Feature", "geometry": {"type": "Point", "coordinates": [-9.164685, 38.508946]}, "properties": {"id": "pt-camp-0134", "name": "O Repouso", "theme": "camping", "description": "", "links": [{"label": "🔎 Infos", "url": "https://www.google.com/search?q=O%20Repouso%20Portugal"}], "photos": [], "details": {"fiche": "À vérifier"}}}, {"type": "Feature", "geometry": {"type": "Point", "coordinates": [-8.474339, 41.523168]}, "properties": {"id": "pt-camp-0135", "name": "OMEE – O Moinho Espaço Escutista", "theme": "camping", "description": "", "links": [{"label": "🔎 Infos", "url": "https://www.google.com/search?q=OMEE%20%E2%80%93%20O%20Moinho%20Espa%C3%A7o%20Escutista%20Portugal"}], "photos": [], "details": {"fiche": "À vérifier"}}}, {"type": "Feature", "geometry": {"type": "Point", "coordinates": [-8.826393, 41.67774]}, "properties": {"id": "pt-camp-0136", "name": "ORBITUR Viana do Castelo", "theme": "camping", "description": "", "links": [{"label": "🌐 Site officiel", "url": "https://www.orbitur.pt/pt/destinos/regiao-norte/orbitur-viana-do-castelo"}, {"label": "🔎 Infos", "url": "https://www.google.com/search?q=ORBITUR%20Viana%20do%20Castelo%20Portugal"}], "photos": [], "details": {"fiche": "Référencé"}}}, {"type": "Feature", "geometry": {"type": "Point", "coordinates": [-8.463582, 37.151399]}, "properties": {"id": "pt-camp-0137", "name": "Oasis campsite", "theme": "camping", "description": "+4915120921075", "links": [{"label": "🌐 Site officiel", "url": "https://oasiscamp.de/"}, {"label": "🔎 Infos", "url": "https://www.google.com/search?q=Oasis%20campsite%20Portugal"}], "photos": [], "details": {"fiche": "Référencé"}}}, {"type": "Feature", "geometry": {"type": "Point", "coordinates": [-8.80017, 40.44476]}, "properties": {"id": "pt-camp-0138", "name": "Orbitur - Parque de Campismo da Praia de Mira", "theme": "camping", "description": "", "links": [{"label": "🌐 Site officiel", "url": "https://www.orbitur.pt/pt/destinos/regiao-centro/orbitur-mira"}, {"label": "🔎 Infos", "url": "https://www.google.com/search?q=Orbitur%20-%20Parque%20de%20Campismo%20da%20Praia%20de%20Mira%20Portugal"}], "photos": [], "details": {"fiche": "Référencé"}}}, {"type": "Feature", "geometry": {"type": "Point", "coordinates": [-8.720289, 41.268694]}, "properties": {"id": "pt-camp-0139", "name": "Orbitur Angeiras", "theme": "camping", "description": "", "links": [{"label": "🌐 Site officiel", "url": "https://www.orbitur.pt/en/destinations/region-north/orbitur-angeiras"}, {"label": "🔎 Infos", "url": "https://www.google.com/search?q=Orbitur%20Angeiras%20Portugal"}], "photos": [], "details": {"fiche": "Référencé"}}}, {"type": "Feature", "geometry": {"type": "Point", "coordinates": [-8.665269, 41.124638]}, "properties": {"id": "pt-camp-0140", "name": "Orbitur Canidelo", "theme": "camping", "description": "", "links": [{"label": "🌐 Site officiel", "url": "https://www.orbitur.pt/en/destinations/region-north/orbitur-canidelo"}, {"label": "🔎 Infos", "url": "https://www.google.com/search?q=Orbitur%20Canidelo%20Portugal"}], "photos": [], "details": {"fiche": "Référencé"}}}, {"type": "Feature", "geometry": {"type": "Point", "coordinates": [-9.23848, 38.652104]}, "properties": {"id": "pt-camp-0141", "name": "Orbitur Costa da Caparica", "theme": "camping", "description": "", "links": [{"label": "🔎 Infos", "url": "https://www.google.com/search?q=Orbitur%20Costa%20da%20Caparica%20Portugal"}], "photos": [], "details": {"fiche": "À vérifier"}}}, {"type": "Feature", "geometry": {"type": "Point", "coordinates": [-8.858705, 40.117881]}, "properties": {"id": "pt-camp-0142", "name": "Orbitur Gala", "theme": "camping", "description": "", "links": [{"label": "🔎 Infos", "url": "https://www.google.com/search?q=Orbitur%20Gala%20Portugal"}], "photos": [], "details": {"fiche": "À vérifier"}}}, {"type": "Feature", "geometry": {"type": "Point", "coordinates": [-9.467507, 38.722779]}, "properties": {"id": "pt-camp-0143", "name": "Orbitur Guincho", "theme": "camping", "description": "", "links": [{"label": "🌐 Site officiel", "url": "https://www.orbitur.pt/destinos/regiao-lisboa/orbitur-guincho"}, {"label": "🔎 Infos", "url": "https://www.google.com/search?q=Orbitur%20Guincho%20Portugal"}], "photos": [], "details": {"fiche": "Référencé"}}}, {"type": "Feature", "geometry": {"type": "Point", "coordinates": [-9.024521, 39.759787]}, "properties": {"id": "pt-camp-0144", "name": "Orbitur São Pedro de Moel", "theme": "camping", "description": "", "links": [{"label": "🔎 Infos", "url": "https://www.google.com/search?q=Orbitur%20S%C3%A3o%20Pedro%20de%20Moel%20Portugal"}], "photos": [], "details": {"fiche": "À vérifier"}}}, {"type": "Feature", "geometry": {"type": "Point", "coordinates": [-8.267373, 41.427047]}, "properties": {"id": "pt-camp-0145", "name": "PCEG – Penha – Centro Escutista de Guimarães", "theme": "camping", "description": "", "links": [{"label": "🌐 Site officiel", "url": "http://www.pceg.cne-escutismo.pt/"}, {"label": "🔎 Infos", "url": "https://www.google.com/search?q=PCEG%20%E2%80%93%20Penha%20%E2%80%93%20Centro%20Escutista%20de%20Guimar%C3%A3es%20Portugal"}], "photos": [], "details": {"fiche": "Référencé"}}}, {"type": "Feature", "geometry": {"type": "Point", "coordinates": [-6.987546, 41.859162]}, "properties": {"id": "pt-camp-0146", "name": "Parque Biológico de Vinhais", "theme": "camping", "description": "", "links": [{"label": "🌐 Site officiel", "url": "https://parquebiologicodevinhais.com"}, {"label": "🔎 Infos", "url": "https://www.google.com/search?q=Parque%20Biol%C3%B3gico%20de%20Vinhais%20Portugal"}], "photos": [], "details": {"fiche": "Référencé"}}}, {"type": "Feature", "geometry": {"type": "Point", "coordinates": [-8.302747, 37.716861]}, "properties": {"id": "pt-camp-0147", "name": "Parque Campismo - Barragem Monte da Rocha", "theme": "camping", "description": "", "links": [{"label": "🔎 Infos", "url": "https://www.google.com/search?q=Parque%20Campismo%20-%20Barragem%20Monte%20da%20Rocha%20Portugal"}], "photos": [], "details": {"fiche": "À vérifier"}}}, {"type": "Feature", "geometry": {"type": "Point", "coordinates": [-7.603296, 37.941962]}, "properties": {"id": "pt-camp-0148", "name": "Parque Campismo Municipal de Serpa", "theme": "camping", "description": "", "links": [{"label": "🔎 Infos", "url": "https://www.google.com/search?q=Parque%20Campismo%20Municipal%20de%20Serpa%20Portugal"}], "photos": [], "details": {"fiche": "À vérifier"}}}, {"type": "Feature", "geometry": {"type": "Point", "coordinates": [-8.172226, 41.703667]}, "properties": {"id": "pt-camp-0149", "name": "Parque Campismo Ponte Saltos", "theme": "camping", "description": "", "links": [{"label": "🔎 Infos", "url": "https://www.google.com/search?q=Parque%20Campismo%20Ponte%20Saltos%20Portugal"}], "photos": [], "details": {"fiche": "À vérifier"}}}, {"type": "Feature", "geometry": {"type": "Point", "coordinates": [-25.444331, 37.820501]}, "properties": {"id": "pt-camp-0150", "name": "Parque Campismo Porto Formoso", "theme": "camping", "description": "", "links": [{"label": "🔎 Infos", "url": "https://www.google.com/search?q=Parque%20Campismo%20Porto%20Formoso%20Portugal"}], "photos": [], "details": {"fiche": "À vérifier"}}}, {"type": "Feature", "geometry": {"type": "Point", "coordinates": [-9.3739, 39.137064]}, "properties": {"id": "pt-camp-0151", "name": "Parque Campismo Santa Cruz", "theme": "camping", "description": "", "links": [{"label": "🔎 Infos", "url": "https://www.google.com/search?q=Parque%20Campismo%20Santa%20Cruz%20Portugal"}], "photos": [], "details": {"fiche": "À vérifier"}}}, {"type": "Feature", "geometry": {"type": "Point", "coordinates": [-8.863474, 39.577607]}, "properties": {"id": "pt-camp-0152", "name": "Parque Campismo das Pedreiras", "theme": "camping", "description": "", "links": [{"label": "🔎 Infos", "url": "https://www.google.com/search?q=Parque%20Campismo%20das%20Pedreiras%20Portugal"}], "photos": [], "details": {"fiche": "À vérifier"}}}, {"type": "Feature", "geometry": {"type": "Point", "coordinates": [-7.487623, 40.236393]}, "properties": {"id": "pt-camp-0153", "name": "Parque Carlos Pinto", "theme": "camping", "description": "", "links": [{"label": "🔎 Infos", "url": "https://www.google.com/search?q=Parque%20Carlos%20Pinto%20Portugal"}], "photos": [], "details": {"fiche": "À vérifier"}}}, {"type": "Feature", "geometry": {"type": "Point", "coordinates": [-7.856761, 41.182328]}, "properties": {"id": "pt-camp-0154", "name": "Parque Escutista de Vila Marim", "theme": "camping", "description": "", "links": [{"label": "🔎 Infos", "url": "https://www.google.com/search?q=Parque%20Escutista%20de%20Vila%20Marim%20Portugal"}], "photos": [], "details": {"fiche": "À vérifier"}}}, {"type": "Feature", "geometry": {"type": "Point", "coordinates": [-7.259212, 40.969518]}, "properties": {"id": "pt-camp-0155", "name": "Parque Municipal de Campismo", "theme": "camping", "description": "", "links": [{"label": "🔎 Infos", "url": "https://www.google.com/search?q=Parque%20Municipal%20de%20Campismo%20Portugal"}], "photos": [], "details": {"fiche": "À vérifier"}}}, {"type": "Feature", "geometry": {"type": "Point", "coordinates": [-7.860874, 38.007042]}, "properties": {"id": "pt-camp-0156", "name": "Parque Municipal de Campismo de Beja", "theme": "camping", "description": "", "links": [{"label": "🔎 Infos", "url": "https://www.google.com/search?q=Parque%20Municipal%20de%20Campismo%20de%20Beja%20Portugal"}], "photos": [], "details": {"fiche": "À vérifier"}}}, {"type": "Feature", "geometry": {"type": "Point", "coordinates": [-8.636412, 41.013356]}, "properties": {"id": "pt-camp-0157", "name": "Parque Municipal de Campismo de Espinho", "theme": "camping", "description": "", "links": [{"label": "🔎 Infos", "url": "https://www.google.com/search?q=Parque%20Municipal%20de%20Campismo%20de%20Espinho%20Portugal"}], "photos": [], "details": {"fiche": "À vérifier"}}}, {"type": "Feature", "geometry": {"type": "Point", "coordinates": [-8.198047, 40.15828]}, "properties": {"id": "pt-camp-0158", "name": "Parque Municipal de Campismo de Serpins", "theme": "camping", "description": "O Pelourinho de Serpins é um pelourinho situado na freguesia de Serpins, no município de Lousã, distrito de Coimbra, em Portugal.", "links": [{"label": "🌐 Site officiel", "url": "https://www.campismoserpins.pt/"}, {"label": "🔗 Wikipédia", "url": "https://pt.wikipedia.org/wiki/Pelourinho_de_Serpins"}, {"label": "🔎 Infos", "url": "https://www.google.com/search?q=Parque%20Municipal%20de%20Campismo%20de%20Serpins%20Portugal"}], "photos": ["https://upload.wikimedia.org/wikipedia/commons/thumb/0/06/Pelourinho_de_Serpins_-_Foto_01.jpg/960px-Pelourinho_de_Serpins_-_Foto_01.jpg"], "details": {"fiche": "Référencé"}}}, {"type": "Feature", "geometry": {"type": "Point", "coordinates": [-9.242035, 38.651016]}, "properties": {"id": "pt-camp-0159", "name": "Parque Nacional de Escotismo da Caparica (PNEC)", "theme": "camping", "description": "", "links": [{"label": "🌐 Site officiel", "url": "https://centros.escoteiros.pt/pt-pt/pnec/"}, {"label": "🔎 Infos", "url": "https://www.google.com/search?q=Parque%20Nacional%20de%20Escotismo%20da%20Caparica%20%28PNEC%29%20Portugal"}], "photos": [], "details": {"fiche": "Référencé"}}}, {"type": "Feature", "geometry": {"type": "Point", "coordinates": [-8.718727, 37.101179]}, "properties": {"id": "pt-camp-0160", "name": "Parque Orbitur Valverde", "theme": "camping", "description": "", "links": [{"label": "🌐 Site officiel", "url": "https://www.orbitur.pt/pt/destinos/algarve/orbitur-valverde"}, {"label": "🔎 Infos", "url": "https://www.google.com/search?q=Parque%20Orbitur%20Valverde%20Portugal"}], "photos": [], "details": {"fiche": "Référencé"}}}, {"type": "Feature", "geometry": {"type": "Point", "coordinates": [-8.86968, 40.087975]}, "properties": {"id": "pt-camp-0161", "name": "Parque da Juventude Adventista (Campismo)", "theme": "camping", "description": "", "links": [{"label": "🔎 Infos", "url": "https://www.google.com/search?q=Parque%20da%20Juventude%20Adventista%20%28Campismo%29%20Portugal"}], "photos": [], "details": {"fiche": "À vérifier"}}}, {"type": "Feature", "geometry": {"type": "Point", "coordinates": [-8.307731, 39.548603]}, "properties": {"id": "pt-camp-0162", "name": "Parque de Alverangel", "theme": "camping", "description": "", "links": [{"label": "🔎 Infos", "url": "https://www.google.com/search?q=Parque%20de%20Alverangel%20Portugal"}], "photos": [], "details": {"fiche": "À vérifier"}}}, {"type": "Feature", "geometry": {"type": "Point", "coordinates": [-17.155233, 32.854073]}, "properties": {"id": "pt-camp-0163", "name": "Parque de Campismo", "theme": "camping", "description": "", "links": [{"label": "🔎 Infos", "url": "https://www.google.com/search?q=Parque%20de%20Campismo%20Portugal"}], "photos": [], "details": {"fiche": "À vérifier"}}}, {"type": "Feature", "geometry": {"type": "Point", "coordinates": [-27.224299, 38.791813]}, "properties": {"id": "pt-camp-0164", "name": "Parque de Campismo", "theme": "camping", "description": "", "links": [{"label": "🔎 Infos", "url": "https://www.google.com/search?q=Parque%20de%20Campismo%20Portugal"}], "photos": [], "details": {"fiche": "À vérifier"}}}, {"type": "Feature", "geometry": {"type": "Point", "coordinates": [-27.224656, 38.791986]}, "properties": {"id": "pt-camp-0165", "name": "Parque de Campismo", "theme": "camping", "description": "", "links": [{"label": "🔎 Infos", "url": "https://www.google.com/search?q=Parque%20de%20Campismo%20Portugal"}], "photos": [], "details": {"fiche": "À vérifier"}}}, {"type": "Feature", "geometry": {"type": "Point", "coordinates": [-31.174119, 39.379462]}, "properties": {"id": "pt-camp-0166", "name": "Parque de Campismo", "theme": "camping", "description": "", "links": [{"label": "🔎 Infos", "url": "https://www.google.com/search?q=Parque%20de%20Campismo%20Portugal"}], "photos": [], "details": {"fiche": "À vérifier"}}}, {"type": "Feature", "geometry": {"type": "Point", "coordinates": [-6.616996, 41.93757]}, "properties": {"id": "pt-camp-0167", "name": "Parque de Campismo", "theme": "camping", "description": "", "links": [{"label": "🔎 Infos", "url": "https://www.google.com/search?q=Parque%20de%20Campismo%20Portugal"}], "photos": [], "details": {"fiche": "À vérifier"}}}, {"type": "Feature", "geometry": {"type": "Point", "coordinates": [-8.042282, 40.410323]}, "properties": {"id": "pt-camp-0168", "name": "Parque de Campismo - Vitor M. P. Silva", "theme": "camping", "description": "", "links": [{"label": "🌐 Site officiel", "url": "https://camping.vmps.pt/"}, {"label": "🔎 Infos", "url": "https://www.google.com/search?q=Parque%20de%20Campismo%20-%20Vitor%20M.%20P.%20Silva%20Portugal"}], "photos": [], "details": {"fiche": "Référencé"}}}, {"type": "Feature", "geometry": {"type": "Point", "coordinates": [-7.81012, 41.757252]}, "properties": {"id": "pt-camp-0169", "name": "Parque de Campismo Aquabarroso", "theme": "camping", "description": "", "links": [{"label": "🌐 Site officiel", "url": "https://www.aquabarroso.com/"}, {"label": "🔎 Infos", "url": "https://www.google.com/search?q=Parque%20de%20Campismo%20Aquabarroso%20Portugal"}], "photos": [], "details": {"fiche": "Référencé"}}}, {"type": "Feature", "geometry": {"type": "Point", "coordinates": [-9.135241, 39.504235]}, "properties": {"id": "pt-camp-0170", "name": "Parque de Campismo Baía Azul", "theme": "camping", "description": "", "links": [{"label": "🌐 Site officiel", "url": "https://freguesiasaomartinhodoporto.pt/parque-de-campismo/"}, {"label": "🔎 Infos", "url": "https://www.google.com/search?q=Parque%20de%20Campismo%20Ba%C3%ADa%20Azul%20Portugal"}], "photos": [], "details": {"fiche": "Référencé"}}}, {"type": "Feature", "geometry": {"type": "Point", "coordinates": [-8.588597, 37.134324]}, "properties": {"id": "pt-camp-0171", "name": "Parque de Campismo Dourada Alvor", "theme": "camping", "description": "", "links": [{"label": "🌐 Site officiel", "url": "https://www.campingalvor.com/"}, {"label": "🔎 Infos", "url": "https://www.google.com/search?q=Parque%20de%20Campismo%20Dourada%20Alvor%20Portugal"}], "photos": [], "details": {"fiche": "Référencé"}}}, {"type": "Feature", "geometry": {"type": "Point", "coordinates": [-8.777838, 41.507171]}, "properties": {"id": "pt-camp-0172", "name": "Parque de Campismo Fão", "theme": "camping", "description": "", "links": [{"label": "🌐 Site officiel", "url": "https://www.cccbarcelos.com/"}, {"label": "🔎 Infos", "url": "https://www.google.com/search?q=Parque%20de%20Campismo%20F%C3%A3o%20Portugal"}], "photos": [], "details": {"fiche": "Référencé"}}}, {"type": "Feature", "geometry": {"type": "Point", "coordinates": [-9.164318, 38.515085]}, "properties": {"id": "pt-camp-0173", "name": "Parque de Campismo Hortências", "theme": "camping", "description": "", "links": [{"label": "🔎 Infos", "url": "https://www.google.com/search?q=Parque%20de%20Campismo%20Hort%C3%AAncias%20Portugal"}], "photos": [], "details": {"fiche": "À vérifier"}}}, {"type": "Feature", "geometry": {"type": "Point", "coordinates": [-9.243246, 38.654535]}, "properties": {"id": "pt-camp-0174", "name": "Parque de Campismo INATEL da Caparica", "theme": "camping", "description": "", "links": [{"label": "🌐 Site officiel", "url": "https://www.inatel.pt/Fundacao/Onde-ficar/Campismo/INATEL-da-Caparica/INATEL-Caparica.aspx"}, {"label": "🔎 Infos", "url": "https://www.google.com/search?q=Parque%20de%20Campismo%20INATEL%20da%20Caparica%20Portugal"}], "photos": [], "details": {"fiche": "Référencé"}}}, {"type": "Feature", "geometry": {"type": "Point", "coordinates": [-8.782439, 37.841871]}, "properties": {"id": "pt-camp-0175", "name": "Parque de Campismo Ilha Pessegueiro", "theme": "camping", "description": "", "links": [{"label": "🌐 Site officiel", "url": "http://www.ilhadopessegueirocamping.com/"}, {"label": "🔎 Infos", "url": "https://www.google.com/search?q=Parque%20de%20Campismo%20Ilha%20Pessegueiro%20Portugal"}], "photos": [], "details": {"fiche": "Référencé"}}}, {"type": "Feature", "geometry": {"type": "Point", "coordinates": [-8.195819, 42.035611]}, "properties": {"id": "pt-camp-0176", "name": "Parque de Campismo Lamas de Mouro", "theme": "camping", "description": "", "links": [{"label": "🔎 Infos", "url": "https://www.google.com/search?q=Parque%20de%20Campismo%20Lamas%20de%20Mouro%20Portugal"}], "photos": [], "details": {"fiche": "À vérifier"}}}, {"type": "Feature", "geometry": {"type": "Point", "coordinates": [-8.66078, 41.11014]}, "properties": {"id": "pt-camp-0177", "name": "Parque de Campismo Marisol", "theme": "camping", "description": "", "links": [{"label": "🌐 Site officiel", "url": "https://www.marisolcamping.com"}, {"label": "🔎 Infos", "url": "https://www.google.com/search?q=Parque%20de%20Campismo%20Marisol%20Portugal"}], "photos": [], "details": {"fiche": "Référencé"}}}, {"type": "Feature", "geometry": {"type": "Point", "coordinates": [-8.786243, 37.495972]}, "properties": {"id": "pt-camp-0178", "name": "Parque de Campismo Monte Carvalhal da Rocha", "theme": "camping", "description": "", "links": [{"label": "🌐 Site officiel", "url": "https://www.montecarvalhaldarocha.com/"}, {"label": "🔎 Infos", "url": "https://www.google.com/search?q=Parque%20de%20Campismo%20Monte%20Carvalhal%20da%20Rocha%20Portugal"}], "photos": [], "details": {"fiche": "Référencé"}}}, {"type": "Feature", "geometry": {"type": "Point", "coordinates": [-7.74452, 37.05347]}, "properties": {"id": "pt-camp-0179", "name": "Parque de Campismo Municipal da Fuseta", "theme": "camping", "description": "", "links": [{"label": "🔎 Infos", "url": "https://www.google.com/search?q=Parque%20de%20Campismo%20Municipal%20da%20Fuseta%20Portugal"}], "photos": [], "details": {"fiche": "À vérifier"}}}, {"type": "Feature", "geometry": {"type": "Point", "coordinates": [-8.485719, 39.399685]}, "properties": {"id": "pt-camp-0180", "name": "Parque de Campismo Municipal da Golegã", "theme": "camping", "description": "", "links": [{"label": "🔎 Infos", "url": "https://www.google.com/search?q=Parque%20de%20Campismo%20Municipal%20da%20Goleg%C3%A3%20Portugal"}], "photos": [], "details": {"fiche": "À vérifier"}}}, {"type": "Feature", "geometry": {"type": "Point", "coordinates": [-7.276052, 40.534961]}, "properties": {"id": "pt-camp-0181", "name": "Parque de Campismo Municipal da Guarda", "theme": "camping", "description": "", "links": [{"label": "🔎 Infos", "url": "https://www.google.com/search?q=Parque%20de%20Campismo%20Municipal%20da%20Guarda%20Portugal"}], "photos": [], "details": {"fiche": "À vérifier"}}}, {"type": "Feature", "geometry": {"type": "Point", "coordinates": [-8.840052, 40.326294]}, "properties": {"id": "pt-camp-0182", "name": "Parque de Campismo Municipal da Praia da Tocha", "theme": "camping", "description": "", "links": [{"label": "🔎 Infos", "url": "https://www.google.com/search?q=Parque%20de%20Campismo%20Municipal%20da%20Praia%20da%20Tocha%20Portugal"}], "photos": [], "details": {"fiche": "À vérifier"}}}, {"type": "Feature", "geometry": {"type": "Point", "coordinates": [-8.067334, 40.240839]}, "properties": {"id": "pt-camp-0183", "name": "Parque de Campismo Municipal de Arganil", "theme": "camping", "description": "Sarzedo é uma povoação portuguesa sede da Freguesia de Sarzedo do Município de Arganil, freguesia com 11,56 km² de área e 636 habitantes (censo de 2021), tendo, por isso, uma densidade populacional de 55 hab./km².", "links": [{"label": "🔗 Wikipédia", "url": "https://pt.wikipedia.org/wiki/Sarzedo_%28Arganil%29"}, {"label": "🔎 Infos", "url": "https://www.google.com/search?q=Parque%20de%20Campismo%20Municipal%20de%20Arganil%20Portugal"}], "photos": ["https://upload.wikimedia.org/wikipedia/commons/thumb/7/70/Rio_Alva_-_Sarzedo_-_Portugal_%2829227850766%29.jpg/960px-Rio_Alva_-_Sarzedo_-_Portugal_%2829227850766%29.jpg"], "details": {"fiche": "Référencé"}}}, {"type": "Feature", "geometry": {"type": "Point", "coordinates": [-8.72001, 40.680698]}, "properties": {"id": "pt-camp-0184", "name": "Parque de Campismo Municipal de Aveiro (São Jacinto) (fechado para obras)", "theme": "camping", "description": "", "links": [{"label": "🔎 Infos", "url": "https://www.google.com/search?q=Parque%20de%20Campismo%20Municipal%20de%20Aveiro%20%28S%C3%A3o%20Jacinto%29%20%28fechado%20para%20obras%29%20Portugal"}], "photos": [], "details": {"fiche": "À vérifier"}}}, {"type": "Feature", "geometry": {"type": "Point", "coordinates": [-7.185371, 39.949598]}, "properties": {"id": "pt-camp-0185", "name": "Parque de Campismo Municipal de Idanha-a-Nova", "theme": "camping", "description": "", "links": [{"label": "🔎 Infos", "url": "https://www.google.com/search?q=Parque%20de%20Campismo%20Municipal%20de%20Idanha-a-Nova%20Portugal"}], "photos": [], "details": {"fiche": "À vérifier"}}}, {"type": "Feature", "geometry": {"type": "Point", "coordinates": [-8.801728, 40.447758]}, "properties": {"id": "pt-camp-0186", "name": "Parque de Campismo Municipal de Mira", "theme": "camping", "description": "", "links": [{"label": "🌐 Site officiel", "url": "https://parquecampismo.cm-mira.pt/"}, {"label": "🔎 Infos", "url": "https://www.google.com/search?q=Parque%20de%20Campismo%20Municipal%20de%20Mira%20Portugal"}], "photos": [], "details": {"fiche": "Référencé"}}}, {"type": "Feature", "geometry": {"type": "Point", "coordinates": [-8.002752, 39.482243]}, "properties": {"id": "pt-camp-0187", "name": "Parque de Campismo Municipal de Ortiga", "theme": "camping", "description": "Nota: Não confundir com a Estação de Belver, também situada na Linha da Beira Baixa.", "links": [{"label": "🔗 Wikipédia", "url": "https://pt.wikipedia.org/wiki/Apeadeiro_de_Barragem_de_Belver"}, {"label": "🔎 Infos", "url": "https://www.google.com/search?q=Parque%20de%20Campismo%20Municipal%20de%20Ortiga%20Portugal"}], "photos": ["https://upload.wikimedia.org/wikipedia/commons/thumb/0/0e/Apeadeiro_de_Barragem_de_Belver_04.jpg/960px-Apeadeiro_de_Barragem_de_Belver_04.jpg"], "details": {"fiche": "Référencé"}}}, {"type": "Feature", "geometry": {"type": "Point", "coordinates": [-9.359911, 39.354955]}, "properties": {"id": "pt-camp-0188", "name": "Parque de Campismo Municipal de Peniche", "theme": "camping", "description": "", "links": [{"label": "🌐 Site officiel", "url": "https://www.cm-peniche.pt/viver/equipamentos/parque-municipal-de-campismo-e-caravanismo-de-peniche"}, {"label": "🔎 Infos", "url": "https://www.google.com/search?q=Parque%20de%20Campismo%20Municipal%20de%20Peniche%20Portugal"}], "photos": [], "details": {"fiche": "Référencé"}}}, {"type": "Feature", "geometry": {"type": "Point", "coordinates": [-8.987358, 38.965531]}, "properties": {"id": "pt-camp-0189", "name": "Parque de Campismo Municipal de Vila Franca de Xira", "theme": "camping", "description": "", "links": [{"label": "🔎 Infos", "url": "https://www.google.com/search?q=Parque%20de%20Campismo%20Municipal%20de%20Vila%20Franca%20de%20Xira%20Portugal"}], "photos": [], "details": {"fiche": "À vérifier"}}}, {"type": "Feature", "geometry": {"type": "Point", "coordinates": [-7.652697, 41.257736]}, "properties": {"id": "pt-camp-0190", "name": "Parque de Campismo NaturWaterPark", "theme": "camping", "description": "", "links": [{"label": "🌐 Site officiel", "url": "https://www.naturwaterpark.pt"}, {"label": "🔎 Infos", "url": "https://www.google.com/search?q=Parque%20de%20Campismo%20NaturWaterPark%20Portugal"}], "photos": [], "details": {"fiche": "Référencé"}}}, {"type": "Feature", "geometry": {"type": "Point", "coordinates": [-8.859751, 41.866243]}, "properties": {"id": "pt-camp-0191", "name": "Parque de Campismo Orbitur Caminha", "theme": "camping", "description": "", "links": [{"label": "🌐 Site officiel", "url": "https://www.orbitur.pt/destinations/region-north/orbitur-caminha"}, {"label": "🔎 Infos", "url": "https://www.google.com/search?q=Parque%20de%20Campismo%20Orbitur%20Caminha%20Portugal"}], "photos": [], "details": {"fiche": "Référencé"}}}, {"type": "Feature", "geometry": {"type": "Point", "coordinates": [-7.804941, 37.020627]}, "properties": {"id": "pt-camp-0192", "name": "Parque de Campismo Orbitur Ilha de Armona", "theme": "camping", "description": "", "links": [{"label": "🌐 Site officiel", "url": "https://www.orbitur.pt/"}, {"label": "🔎 Infos", "url": "https://www.google.com/search?q=Parque%20de%20Campismo%20Orbitur%20Ilha%20de%20Armona%20Portugal"}], "photos": [], "details": {"fiche": "Référencé"}}}, {"type": "Feature", "geometry": {"type": "Point", "coordinates": [-8.718442, 40.702627]}, "properties": {"id": "pt-camp-0193", "name": "Parque de Campismo Orbitur de São Jacinto", "theme": "camping", "description": "", "links": [{"label": "🔎 Infos", "url": "https://www.google.com/search?q=Parque%20de%20Campismo%20Orbitur%20de%20S%C3%A3o%20Jacinto%20Portugal"}], "photos": [], "details": {"fiche": "À vérifier"}}}, {"type": "Feature", "geometry": {"type": "Point", "coordinates": [-9.004551, 38.494347]}, "properties": {"id": "pt-camp-0194", "name": "Parque de Campismo Picheleiros", "theme": "camping", "description": "", "links": [{"label": "🔎 Infos", "url": "https://www.google.com/search?q=Parque%20de%20Campismo%20Picheleiros%20Portugal"}], "photos": [], "details": {"fiche": "À vérifier"}}}, {"type": "Feature", "geometry": {"type": "Point", "coordinates": [-9.222891, 38.627403]}, "properties": {"id": "pt-camp-0195", "name": "Parque de Campismo Piedense", "theme": "camping", "description": "", "links": [{"label": "🌐 Site officiel", "url": "https://sfuap.pt/Inicio/campismo/"}, {"label": "🔎 Infos", "url": "https://www.google.com/search?q=Parque%20de%20Campismo%20Piedense%20Portugal"}], "photos": [], "details": {"fiche": "Référencé"}}}, {"type": "Feature", "geometry": {"type": "Point", "coordinates": [-7.871857, 40.307145]}, "properties": {"id": "pt-camp-0196", "name": "Parque de Campismo Ponte das Três Entradas", "theme": "camping", "description": "O rio Alvôco é um curso de água de Portugal, que nasce na Serra da Estrela (no concelho de Seia, distrito da Guarda) junto a Alvoco da Serra, de onde desce até Vide, entrando no distrito de Coimbra no concelho de Oliveira do Hospital (em Alvoco das Várzeas até Ponte das Três Entradas), onde desagua ", "links": [{"label": "🌐 Site officiel", "url": "https://www.pontedas3entradas.com/"}, {"label": "🔗 Wikipédia", "url": "https://pt.wikipedia.org/wiki/Rio_Alv%C3%B4co"}, {"label": "🔎 Infos", "url": "https://www.google.com/search?q=Parque%20de%20Campismo%20Ponte%20das%20Tr%C3%AAs%20Entradas%20Portugal"}], "photos": ["https://upload.wikimedia.org/wikipedia/commons/thumb/4/48/Rio_Alv%C3%B4co_-_Portugal_%2811292829906%29.jpg/960px-Rio_Alv%C3%B4co_-_Portugal_%2811292829906%29.jpg"], "details": {"fiche": "Référencé"}}}, {"type": "Feature", "geometry": {"type": "Point", "coordinates": [-25.590377, 37.798708]}, "properties": {"id": "pt-camp-0197", "name": "Parque de Campismo Quinta das Laranjeiras", "theme": "camping", "description": "", "links": [{"label": "🔎 Infos", "url": "https://www.google.com/search?q=Parque%20de%20Campismo%20Quinta%20das%20Laranjeiras%20Portugal"}], "photos": [], "details": {"fiche": "À vérifier"}}}, {"type": "Feature", "geometry": {"type": "Point", "coordinates": [-9.227014, 38.635657]}, "properties": {"id": "pt-camp-0198", "name": "Parque de Campismo Quinta do Pinheiro", "theme": "camping", "description": "", "links": [{"label": "🔎 Infos", "url": "https://www.google.com/search?q=Parque%20de%20Campismo%20Quinta%20do%20Pinheiro%20Portugal"}], "photos": [], "details": {"fiche": "À vérifier"}}}, {"type": "Feature", "geometry": {"type": "Point", "coordinates": [-7.501784, 41.700992]},