{"type": "FeatureCollection", "features": [{"type": "Feature", "geometry": {"type": "Point", "coordinates": [6.167349, 49.986547]}, "properties": {"id": "lu-camp-0001", "name": "Alte Mühle", "theme": "camping", "description": "", "links": [{"label": "🌐 Site officiel", "url": "http://www.gemuend-our.de/camping/Camping.html"}, {"label": "🔎 Infos", "url": "https://www.google.com/search?q=Alte%20M%C3%BChle%20Luxembourg"}], "photos": [], "details": {"fiche": "Référencé"}}}, {"type": "Feature", "geometry": {"type": "Point", "coordinates": [6.199541, 49.799658]}, "properties": {"id": "lu-camp-0002", "name": "Auf Kengert", "theme": "camping", "description": "", "links": [{"label": "🌐 Site officiel", "url": "https://www.kengert.lu/"}, {"label": "🔎 Infos", "url": "https://www.google.com/search?q=Auf%20Kengert%20Luxembourg"}], "photos": [], "details": {"fiche": "Référencé"}}}, {"type": "Feature", "geometry": {"type": "Point", "coordinates": [6.349661, 49.818453]}, "properties": {"id": "lu-camp-0003", "name": "Belle-Vue 2000", "theme": "camping", "description": "", "links": [{"label": "🌐 Site officiel", "url": "https://campingbellevue.lu/"}, {"label": "🔎 Infos", "url": "https://www.google.com/search?q=Belle-Vue%202000%20Luxembourg"}], "photos": [], "details": {"fiche": "Référencé"}}}, {"type": "Feature", "geometry": {"type": "Point", "coordinates": [5.945112, 49.963817]}, "properties": {"id": "lu-camp-0004", "name": "Camp 10 - Sangliers - Wild Boar - Wildschwein", "theme": "camping", "description": "", "links": [{"label": "🌐 Site officiel", "url": "https://scoutswiltz.lu/"}, {"label": "🔎 Infos", "url": "https://www.google.com/search?q=Camp%2010%20-%20Sangliers%20-%20Wild%20Boar%20-%20Wildschwein%20Luxembourg"}], "photos": [], "details": {"fiche": "Référencé"}}}, {"type": "Feature", "geometry": {"type": "Point", "coordinates": [5.941719, 49.965245]}, "properties": {"id": "lu-camp-0005", "name": "Camp 9 Lièvre - Rabbit - Hase", "theme": "camping", "description": "", "links": [{"label": "🔎 Infos", "url": "https://www.google.com/search?q=Camp%209%20Li%C3%A8vre%20-%20Rabbit%20-%20Hase%20Luxembourg"}], "photos": [], "details": {"fiche": "À vérifier"}}}, {"type": "Feature", "geometry": {"type": "Point", "coordinates": [5.940923, 49.906481]}, "properties": {"id": "lu-camp-0006", "name": "Camping \"im Aal\"", "theme": "camping", "description": "", "links": [{"label": "🌐 Site officiel", "url": "http://www.campingaal.lu/"}, {"label": "🔎 Infos", "url": "https://www.google.com/search?q=Camping%20%22im%20Aal%22%20Luxembourg"}], "photos": [], "details": {"fiche": "Référencé"}}}, {"type": "Feature", "geometry": {"type": "Point", "coordinates": [6.179765, 49.915994]}, "properties": {"id": "lu-camp-0007", "name": "Camping - Beter Uit Walsdorf", "theme": "camping", "description": "", "links": [{"label": "🌐 Site officiel", "url": "https://www.beteruitholidayparks.com/walsdorf"}, {"label": "🔎 Infos", "url": "https://www.google.com/search?q=Camping%20-%20Beter%20Uit%20Walsdorf%20Luxembourg"}], "photos": [], "details": {"fiche": "Référencé"}}}, {"type": "Feature", "geometry": {"type": "Point", "coordinates": [6.287295, 49.842735]}, "properties": {"id": "lu-camp-0008", "name": "Camping Beau Site", "theme": "camping", "description": "", "links": [{"label": "🔎 Infos", "url": "https://www.google.com/search?q=Camping%20Beau%20Site%20Luxembourg"}], "photos": [], "details": {"fiche": "À vérifier"}}}, {"type": "Feature", "geometry": {"type": "Point", "coordinates": [6.00757, 49.925292]}, "properties": {"id": "lu-camp-0009", "name": "Camping Berkel", "theme": "camping", "description": "", "links": [{"label": "🌐 Site officiel", "url": "https://www.campingberkel.com/"}, {"label": "🔎 Infos", "url": "https://www.google.com/search?q=Camping%20Berkel%20Luxembourg"}], "photos": [], "details": {"fiche": "Référencé"}}}, {"type": "Feature", "geometry": {"type": "Point", "coordinates": [6.212702, 49.782927]}, "properties": {"id": "lu-camp-0010", "name": "Camping Birkelt", "theme": "camping", "description": "", "links": [{"label": "🌐 Site officiel", "url": "http://www.camping-birkelt.lu/"}, {"label": "🔎 Infos", "url": "https://www.google.com/search?q=Camping%20Birkelt%20Luxembourg"}], "photos": [], "details": {"fiche": "Référencé"}}}, {"type": "Feature", "geometry": {"type": "Point", "coordinates": [5.958542, 49.905786]}, "properties": {"id": "lu-camp-0011", "name": "Camping Bissen", "theme": "camping", "description": "", "links": [{"label": "🌐 Site officiel", "url": "https://camping-bissen.lu/"}, {"label": "🔎 Infos", "url": "https://www.google.com/search?q=Camping%20Bissen%20Luxembourg"}], "photos": [], "details": {"fiche": "Référencé"}}}, {"type": "Feature", "geometry": {"type": "Point", "coordinates": [6.188728, 49.873442]}, "properties": {"id": "lu-camp-0012", "name": "Camping Bleesbruck", "theme": "camping", "description": "", "links": [{"label": "🌐 Site officiel", "url": "https://www.camping-bleesbruck.lu/"}, {"label": "🔎 Infos", "url": "https://www.google.com/search?q=Camping%20Bleesbruck%20Luxembourg"}], "photos": [], "details": {"fiche": "Référencé"}}}, {"type": "Feature", "geometry": {"type": "Point", "coordinates": [6.187394, 49.874553]}, "properties": {"id": "lu-camp-0013", "name": "Camping Bleesbruck", "theme": "camping", "description": "", "links": [{"label": "🌐 Site officiel", "url": "https://www.camping-bleesbruck.lu/"}, {"label": "🔎 Infos", "url": "https://www.google.com/search?q=Camping%20Bleesbruck%20Luxembourg"}], "photos": [], "details": {"fiche": "Référencé"}}}, {"type": "Feature", "geometry": {"type": "Point", "coordinates": [6.158991, 49.569744]}, "properties": {"id": "lu-camp-0014", "name": "Camping Bon Accueil Alzingen", "theme": "camping", "description": "", "links": [{"label": "🌐 Site officiel", "url": "http://www.camping-alzingen.lu/en"}, {"label": "🔎 Infos", "url": "https://www.google.com/search?q=Camping%20Bon%20Accueil%20Alzingen%20Luxembourg"}], "photos": [], "details": {"fiche": "Référencé"}}}, {"type": "Feature", "geometry": {"type": "Point", "coordinates": [6.036084, 49.920899]}, "properties": {"id": "lu-camp-0015", "name": "Camping Dirbach", "theme": "camping", "description": "Dirbach (en luxembourgeois : Dierbech ) est une section des communes luxembourgeoises de Bourscheid et de Goesdorf située dans les cantons de Diekirch et Wiltz.", "links": [{"label": "🔗 Wikipédia", "url": "https://fr.wikipedia.org/wiki/Dirbach"}, {"label": "🔎 Infos", "url": "https://www.google.com/search?q=Camping%20Dirbach%20Luxembourg"}], "photos": [], "details": {"fiche": "Référencé"}}}, {"type": "Feature", "geometry": {"type": "Point", "coordinates": [6.081067, 49.846199]}, "properties": {"id": "lu-camp-0016", "name": "Camping Ettelbruck", "theme": "camping", "description": "", "links": [{"label": "🌐 Site officiel", "url": "https://www.campingettelbruck.lu/"}, {"label": "🔎 Infos", "url": "https://www.google.com/search?q=Camping%20Ettelbruck%20Luxembourg"}], "photos": [], "details": {"fiche": "Référencé"}}}, {"type": "Feature", "geometry": {"type": "Point", "coordinates": [5.990407, 49.877621]}, "properties": {"id": "lu-camp-0017", "name": "Camping Fuussekaul", "theme": "camping", "description": "", "links": [{"label": "🌐 Site officiel", "url": "https://www.fuussekaul.lu/"}, {"label": "🔎 Infos", "url": "https://www.google.com/search?q=Camping%20Fuussekaul%20Luxembourg"}], "photos": [], "details": {"fiche": "Référencé"}}}, {"type": "Feature", "geometry": {"type": "Point", "coordinates": [5.985381, 49.485035]}, "properties": {"id": "lu-camp-0018", "name": "Camping Gaalgebierg", "theme": "camping", "description": "", "links": [{"label": "🌐 Site officiel", "url": "https://gaalgebierg.lu/"}, {"label": "🔎 Infos", "url": "https://www.google.com/search?q=Camping%20Gaalgebierg%20Luxembourg"}], "photos": [], "details": {"fiche": "Référencé"}}}, {"type": "Feature", "geometry": {"type": "Point", "coordinates": [6.136809, 49.851991]}, "properties": {"id": "lu-camp-0019", "name": "Camping Gritt", "theme": "camping", "description": "", "links": [{"label": "🌐 Site officiel", "url": "http://camping-gritt.lu"}, {"label": "🔎 Infos", "url": "https://www.google.com/search?q=Camping%20Gritt%20Luxembourg"}], "photos": [], "details": {"fiche": "Référencé"}}}, {"type": "Feature", "geometry": {"type": "Point", "coordinates": [5.783595, 49.809698]}, "properties": {"id": "lu-camp-0020", "name": "Camping Héiltzerstee", "theme": "camping", "description": "", "links": [{"label": "🔎 Infos", "url": "https://www.google.com/search?q=Camping%20H%C3%A9iltzerstee%20Luxembourg"}], "photos": [], "details": {"fiche": "À vérifier"}}}, {"type": "Feature", "geometry": {"type": "Point", "coordinates": [5.931605, 49.973383]}, "properties": {"id": "lu-camp-0021", "name": "Camping KAUL", "theme": "camping", "description": "", "links": [{"label": "🌐 Site officiel", "url": "https://www.wiltz.lu/fr/base-de-loisirs-et-camping-kaul"}, {"label": "🔎 Infos", "url": "https://www.google.com/search?q=Camping%20KAUL%20Luxembourg"}], "photos": [], "details": {"fiche": "Référencé"}}}, {"type": "Feature", "geometry": {"type": "Point", "coordinates": [6.028448, 49.955362]}, "properties": {"id": "lu-camp-0022", "name": "Camping Kautenbach", "theme": "camping", "description": "", "links": [{"label": "🌐 Site officiel", "url": "https://www.campingkautenbach.lu/"}, {"label": "🔎 Infos", "url": "https://www.google.com/search?q=Camping%20Kautenbach%20Luxembourg"}], "photos": [], "details": {"fiche": "Référencé"}}}, {"type": "Feature", "geometry": {"type": "Point", "coordinates": [6.090152, 49.74212]}, "properties": {"id": "lu-camp-0023", "name": "Camping Krounebierg", "theme": "camping", "description": "", "links": [{"label": "🌐 Site officiel", "url": "https://campingkrounebierg.lu/de/"}, {"label": "🔎 Infos", "url": "https://www.google.com/search?q=Camping%20Krounebierg%20Luxembourg"}], "photos": [], "details": {"fiche": "Référencé"}}}, {"type": "Feature", "geometry": {"type": "Point", "coordinates": [5.965219, 49.905907]}, "properties": {"id": "lu-camp-0024", "name": "Camping Le Moulin", "theme": "camping", "description": "", "links": [{"label": "🌐 Site officiel", "url": "https://www.camping-moulin.eu/"}, {"label": "🔎 Infos", "url": "https://www.google.com/search?q=Camping%20Le%20Moulin%20Luxembourg"}], "photos": [], "details": {"fiche": "Référencé"}}}, {"type": "Feature", "geometry": {"type": "Point", "coordinates": [5.874741, 49.910825]}, "properties": {"id": "lu-camp-0025", "name": "Camping Liefrange", "theme": "camping", "description": "", "links": [{"label": "🌐 Site officiel", "url": "https://www.camping-liefrange.lu"}, {"label": "🔎 Infos", "url": "https://www.google.com/search?q=Camping%20Liefrange%20Luxembourg"}], "photos": [], "details": {"fiche": "Référencé"}}}, {"type": "Feature", "geometry": {"type": "Point", "coordinates": [6.223756, 49.838356]}, "properties": {"id": "lu-camp-0026", "name": "Camping Neumuhle", "theme": "camping", "description": "", "links": [{"label": "🌐 Site officiel", "url": "https://www.camping-neumuhle.lu/"}, {"label": "🔎 Infos", "url": "https://www.google.com/search?q=Camping%20Neumuhle%20Luxembourg"}], "photos": [], "details": {"fiche": "Référencé"}}}, {"type": "Feature", "geometry": {"type": "Point", "coordinates": [6.408611, 49.816269]}, "properties": {"id": "lu-camp-0027", "name": "Camping Officiel Wollefsschlucht", "theme": "camping", "description": "", "links": [{"label": "🌐 Site officiel", "url": "https://www.visitechternach.lu/de/essen-uebernachten/campingplatze"}, {"label": "🔎 Infos", "url": "https://www.google.com/search?q=Camping%20Officiel%20Wollefsschlucht%20Luxembourg"}], "photos": [], "details": {"fiche": "Référencé"}}}, {"type": "Feature", "geometry": {"type": "Point", "coordinates": [6.173534, 49.866934]}, "properties": {"id": "lu-camp-0028", "name": "Camping Op der Sauer", "theme": "camping", "description": "", "links": [{"label": "🌐 Site officiel", "url": "https://www.campsauer.lu/"}, {"label": "🔎 Infos", "url": "https://www.google.com/search?q=Camping%20Op%20der%20Sauer%20Luxembourg"}], "photos": [], "details": {"fiche": "Référencé"}}}, {"type": "Feature", "geometry": {"type": "Point", "coordinates": [6.072576, 49.907412]}, "properties": {"id": "lu-camp-0029", "name": "Camping Panorama", "theme": "camping", "description": "", "links": [{"label": "🔎 Infos", "url": "https://www.google.com/search?q=Camping%20Panorama%20Luxembourg"}], "photos": [], "details": {"fiche": "À vérifier"}}}, {"type": "Feature", "geometry": {"type": "Point", "coordinates": [6.286739, 49.839311]}, "properties": {"id": "lu-camp-0030", "name": "Camping Park Beaufort", "theme": "camping", "description": "", "links": [{"label": "🌐 Site officiel", "url": "https://campingpark-beaufort.lu/"}, {"label": "🔎 Infos", "url": "https://www.google.com/search?q=Camping%20Park%20Beaufort%20Luxembourg"}], "photos": [], "details": {"fiche": "Référencé"}}}, {"type": "Feature", "geometry": {"type": "Point", "coordinates": [6.286802, 49.841032]}, "properties": {"id": "lu-camp-0031", "name": "Camping Plage, Annexe", "theme": "camping", "description": "", "links": [{"label": "🔎 Infos", "url": "https://www.google.com/search?q=Camping%20Plage%2C%20Annexe%20Luxembourg"}], "photos": [], "details": {"fiche": "À vérifier"}}}, {"type": "Feature", "geometry": {"type": "Point", "coordinates": [6.265506, 49.869291]}, "properties": {"id": "lu-camp-0032", "name": "Camping Reisdorf", "theme": "camping", "description": "", "links": [{"label": "🌐 Site officiel", "url": "https://www.campingreisdorf.com/"}, {"label": "🔎 Infos", "url": "https://www.google.com/search?q=Camping%20Reisdorf%20Luxembourg"}], "photos": [], "details": {"fiche": "Référencé"}}}, {"type": "Feature", "geometry": {"type": "Point", "coordinates": [6.279517, 49.816997]}, "properties": {"id": "lu-camp-0033", "name": "Camping Relax", "theme": "camping", "description": "", "links": [{"label": "🌐 Site officiel", "url": "http://camprelax.com"}, {"label": "🔎 Infos", "url": "https://www.google.com/search?q=Camping%20Relax%20Luxembourg"}], "photos": [], "details": {"fiche": "Référencé"}}}, {"type": "Feature", "geometry": {"type": "Point", "coordinates": [6.504716, 49.807886]}, "properties": {"id": "lu-camp-0034", "name": "Camping Rosport", "theme": "camping", "description": "", "links": [{"label": "🌐 Site officiel", "url": "https://www.camping-rosport.lu/"}, {"label": "🔎 Infos", "url": "https://www.google.com/search?q=Camping%20Rosport%20Luxembourg"}], "photos": [], "details": {"fiche": "Référencé"}}}, {"type": "Feature", "geometry": {"type": "Point", "coordinates": [6.000004, 49.987652]}, "properties": {"id": "lu-camp-0035", "name": "Camping Saint-Willibrord", "theme": "camping", "description": "La gare de Wilwerwiltz est une gare ferroviaire luxembourgeoise de la ligne 1, de Luxembourg à Troisvierges-frontière, située à Wilwerwiltz sur le territoire de la commune de Kiischpelt, dans le canton de Wiltz.", "links": [{"label": "🔗 Wikipédia", "url": "https://fr.wikipedia.org/wiki/Gare_de_Wilwerwiltz"}, {"label": "🔎 Infos", "url": "https://www.google.com/search?q=Camping%20Saint-Willibrord%20Luxembourg"}], "photos": ["https://upload.wikimedia.org/wikipedia/commons/thumb/5/53/Wilwerwiltz_Gare_2011.jpg/960px-Wilwerwiltz_Gare_2011.jpg"], "details": {"fiche": "Référencé"}}}, {"type": "Feature", "geometry": {"type": "Point", "coordinates": [6.504852, 49.716229]}, "properties": {"id": "lu-camp-0036", "name": "Camping Schützwiese", "theme": "camping", "description": "", "links": [{"label": "🌐 Site officiel", "url": "https://www.visitwasserbillig.lu/"}, {"label": "🔎 Infos", "url": "https://www.google.com/search?q=Camping%20Sch%C3%BCtzwiese%20Luxembourg"}], "photos": [], "details": {"fiche": "Référencé"}}}, {"type": "Feature", "geometry": {"type": "Point", "coordinates": [6.001483, 49.914336]}, "properties": {"id": "lu-camp-0037", "name": "Camping Toodlermillen", "theme": "camping", "description": "", "links": [{"label": "🌐 Site officiel", "url": "https://www.camping-toodlermillen.lu/"}, {"label": "🔎 Infos", "url": "https://www.google.com/search?q=Camping%20Toodlermillen%20Luxembourg"}], "photos": [], "details": {"fiche": "Référencé"}}}, {"type": "Feature", "geometry": {"type": "Point", "coordinates": [6.104519, 50.123031]}, "properties": {"id": "lu-camp-0038", "name": "Camping Trois Frontières", "theme": "camping", "description": "", "links": [{"label": "🔎 Infos", "url": "https://www.google.com/search?q=Camping%20Trois%20Fronti%C3%A8res%20Luxembourg"}], "photos": [], "details": {"fiche": "À vérifier"}}}, {"type": "Feature", "geometry": {"type": "Point", "coordinates": [6.00072, 50.118241]}, "properties": {"id": "lu-camp-0039", "name": "Camping Troisvierges", "theme": "camping", "description": "", "links": [{"label": "🌐 Site officiel", "url": "https://www.camping-troisvierges.lu"}, {"label": "🔎 Infos", "url": "https://www.google.com/search?q=Camping%20Troisvierges%20Luxembourg"}], "photos": [], "details": {"fiche": "Référencé"}}}, {"type": "Feature", "geometry": {"type": "Point", "coordinates": [6.096386, 49.888219]}, "properties": {"id": "lu-camp-0040", "name": "Camping Um Willspull", "theme": "camping", "description": "", "links": [{"label": "🌐 Site officiel", "url": "https://www.umwillspull.lu"}, {"label": "🔎 Infos", "url": "https://www.google.com/search?q=Camping%20Um%20Willspull%20Luxembourg"}], "photos": [], "details": {"fiche": "Référencé"}}}, {"type": "Feature", "geometry": {"type": "Point", "coordinates": [6.132059, 50.042639]}, "properties": {"id": "lu-camp-0041", "name": "Camping Vallée de l'Our", "theme": "camping", "description": "", "links": [{"label": "🔎 Infos", "url": "https://www.google.com/search?q=Camping%20Vall%C3%A9e%20de%20l%27Our%20Luxembourg"}], "photos": [], "details": {"fiche": "À vérifier"}}}, {"type": "Feature", "geometry": {"type": "Point", "coordinates": [6.027138, 50.090595]}, "properties": {"id": "lu-camp-0042", "name": "Camping Woltzdal", "theme": "camping", "description": "", "links": [{"label": "🌐 Site officiel", "url": "https://www.campingwoltzdal.com/"}, {"label": "🔎 Infos", "url": "https://www.google.com/search?q=Camping%20Woltzdal%20Luxembourg"}], "photos": [], "details": {"fiche": "Référencé"}}}, {"type": "Feature", "geometry": {"type": "Point", "coordinates": [5.973793, 49.700454]}, "properties": {"id": "lu-camp-0043", "name": "Camping an der Hô", "theme": "camping", "description": "", "links": [{"label": "🔎 Infos", "url": "https://www.google.com/search?q=Camping%20an%20der%20H%C3%B4%20Luxembourg"}], "photos": [], "details": {"fiche": "À vérifier"}}}, {"type": "Feature", "geometry": {"type": "Point", "coordinates": [6.22234, 49.928962]}, "properties": {"id": "lu-camp-0044", "name": "Camping de l'Our", "theme": "camping", "description": "", "links": [{"label": "🌐 Site officiel", "url": "https://www.camping-our-vianden.lu/"}, {"label": "🔎 Infos", "url": "https://www.google.com/search?q=Camping%20de%20l%27Our%20Luxembourg"}], "photos": [], "details": {"fiche": "Référencé"}}}, {"type": "Feature", "geometry": {"type": "Point", "coordinates": [6.449148, 49.682381]}, "properties": {"id": "lu-camp-0045", "name": "Camping de la Route du Vin", "theme": "camping", "description": "", "links": [{"label": "🌐 Site officiel", "url": "https://visitmaacher.lu/unterkuenfte/camping/"}, {"label": "🔎 Infos", "url": "https://www.google.com/search?q=Camping%20de%20la%20Route%20du%20Vin%20Luxembourg"}], "photos": [], "details": {"fiche": "Référencé"}}}, {"type": "Feature", "geometry": {"type": "Point", "coordinates": [6.165736, 49.866768]}, "properties": {"id": "lu-camp-0046", "name": "Camping de la Sûre", "theme": "camping", "description": "", "links": [{"label": "🌐 Site officiel", "url": "https://camping.diekirch.lu/"}, {"label": "🔎 Infos", "url": "https://www.google.com/search?q=Camping%20de%20la%20S%C3%BBre%20Luxembourg"}], "photos": [], "details": {"fiche": "Référencé"}}}, {"type": "Feature", "geometry": {"type": "Point", "coordinates": [6.26844, 49.870735]}, "properties": {"id": "lu-camp-0047", "name": "Camping de la Sûre", "theme": "camping", "description": "", "links": [{"label": "🌐 Site officiel", "url": "https://campingdelasure.lu/"}, {"label": "🔎 Infos", "url": "https://www.google.com/search?q=Camping%20de%20la%20S%C3%BBre%20Luxembourg"}], "photos": [], "details": {"fiche": "Référencé"}}}, {"type": "Feature", "geometry": {"type": "Point", "coordinates": [6.166613, 49.978799]}, "properties": {"id": "lu-camp-0048", "name": "Camping du Barrage", "theme": "camping", "description": "", "links": [{"label": "🌐 Site officiel", "url": "https://www.campingdubarrage.lu/"}, {"label": "🔎 Infos", "url": "https://www.google.com/search?q=Camping%20du%20Barrage%20Luxembourg"}], "photos": [], "details": {"fiche": "Référencé"}}}, {"type": "Feature", "geometry": {"type": "Point", "coordinates": [6.196415, 49.949833]}, "properties": {"id": "lu-camp-0049", "name": "Camping du Lac", "theme": "camping", "description": "", "links": [{"label": "🔎 Infos", "url": "https://www.google.com/search?q=Camping%20du%20Lac%20Luxembourg"}], "photos": [], "details": {"fiche": "À vérifier"}}}, {"type": "Feature", "geometry": {"type": "Point", "coordinates": [6.086024, 49.913219]}, "properties": {"id": "lu-camp-0050", "name": "Camping du Moulin", "theme": "camping", "description": "Bourscheid-Moulin (en luxembourgeois : Buerschter Millen et en allemand : Burscheidermühle) est un lieu-dit de la commune luxembourgeoise de Bourscheid.", "links": [{"label": "🌐 Site officiel", "url": "https://www.camp.lu/"}, {"label": "🔗 Wikipédia", "url": "https://fr.wikipedia.org/wiki/Bourscheid-Moulin"}, {"label": "🔎 Infos", "url": "https://www.google.com/search?q=Camping%20du%20Moulin%20Luxembourg"}], "photos": ["https://upload.wikimedia.org/wikipedia/commons/thumb/5/5a/Buerschter_Mille_Millebaach.jpg/960px-Buerschter_Mille_Millebaach.jpg"], "details": {"fiche": "Référencé"}}}, {"type": "Feature", "geometry": {"type": "Point", "coordinates": [6.221658, 49.927173]}, "properties": {"id": "lu-camp-0051", "name": "Camping du Moulin", "theme": "camping", "description": "", "links": [{"label": "🔎 Infos", "url": "https://www.google.com/search?q=Camping%20du%20Moulin%20Luxembourg"}], "photos": [], "details": {"fiche": "À vérifier"}}}, {"type": "Feature", "geometry": {"type": "Point", "coordinates": [6.044969, 49.925264]}, "properties": {"id": "lu-camp-0052", "name": "Camping du Nord", "theme": "camping", "description": "", "links": [{"label": "🌐 Site officiel", "url": "https://www.campingdunord.lu/"}, {"label": "🔎 Infos", "url": "https://www.google.com/search?q=Camping%20du%20Nord%20Luxembourg"}], "photos": [], "details": {"fiche": "Référencé"}}}, {"type": "Feature", "geometry": {"type": "Point", "coordinates": [6.475828, 49.701655]}, "properties": {"id": "lu-camp-0053", "name": "Camping du Parc", "theme": "camping", "description": "", "links": [{"label": "🌐 Site officiel", "url": "https://sit-mertert.lu/"}, {"label": "🔎 Infos", "url": "https://www.google.com/search?q=Camping%20du%20Parc%20Luxembourg"}], "photos": [], "details": {"fiche": "Référencé"}}}, {"type": "Feature", "geometry": {"type": "Point", "coordinates": [6.291128, 49.87333]}, "properties": {"id": "lu-camp-0054", "name": "Camping du Rivage", "theme": "camping", "description": "La gare de Wallendorf-Pont était une gare ferroviaire luxembourgeoise de la ligne d'Ettelbruck à Grevenmacher, située dans la localité de Wallendorf-Pont, sur le territoire de la commune de Reisdorf, dans le canton de Diekirch.", "links": [{"label": "🌐 Site officiel", "url": "https://www.durivage.lu/home"}, {"label": "🔗 Wikipédia", "url": "https://fr.wikipedia.org/wiki/Gare_de_Wallendorf-Pont"}, {"label": "🔎 Infos", "url": "https://www.google.com/search?q=Camping%20du%20Rivage%20Luxembourg"}], "photos": ["https://upload.wikimedia.org/wikipedia/commons/thumb/4/42/Wallendorf_Pont%2C_ancienne_gare_%28101%29.jpg/960px-Wallendorf_Pont%2C_ancienne_gare_%28101%29.jpg"], "details": {"fiche": "Référencé"}}}, {"type": "Feature", "geometry": {"type": "Point", "coordinates": [6.023375, 50.053933]}, "properties": {"id": "lu-camp-0055", "name": "Camping officiel de Clervaux", "theme": "camping", "description": "", "links": [{"label": "🌐 Site officiel", "url": "https://www.camping-clervaux.lu/"}, {"label": "🔎 Infos", "url": "https://www.google.com/search?q=Camping%20officiel%20de%20Clervaux%20Luxembourg"}], "photos": [], "details": {"fiche": "Référencé"}}}, {"type": "Feature", "geometry": {"type": "Point", "coordinates": [6.290678, 49.843172]}, "properties": {"id": "lu-camp-0056", "name": "Camping um Bierg", "theme": "camping", "description": "", "links": [{"label": "🔎 Infos", "url": "https://www.google.com/search?q=Camping%20um%20Bierg%20Luxembourg"}], "photos": [], "details": {"fiche": "À vérifier"}}}, {"type": "Feature", "geometry": {"type": "Point", "coordinates": [6.333025, 49.840472]}, "properties": {"id": "lu-camp-0057", "name": "Camping-Altschmiede", "theme": "camping", "description": "", "links": [{"label": "🌐 Site officiel", "url": "https://www.camping-altschmiede.de/"}, {"label": "🔎 Infos", "url": "https://www.google.com/search?q=Camping-Altschmiede%20Luxembourg"}], "photos": [], "details": {"fiche": "Référencé"}}}, {"type": "Feature", "geometry": {"type": "Point", "coordinates": [6.430867, 49.811887]}, "properties": {"id": "lu-camp-0058", "name": "Campingpark Freibad Echternacherbrück", "theme": "camping", "description": "", "links": [{"label": "🌐 Site officiel", "url": "https://www.echternacherbrueck.de/"}, {"label": "🔎 Infos", "url": "https://www.google.com/search?q=Campingpark%20Freibad%20Echternacherbr%C3%BCck%20Luxembourg"}], "photos": [], "details": {"fiche": "Référencé"}}}, {"type": "Feature", "geometry": {"type": "Point", "coordinates": [6.511227, 49.786423]}, "properties": {"id": "lu-camp-0059", "name": "Campingplatz \"Zum Sauertal\"", "theme": "camping", "description": "", "links": [{"label": "🔎 Infos", "url": "https://www.google.com/search?q=Campingplatz%20%22Zum%20Sauertal%22%20Luxembourg"}], "photos": [], "details": {"fiche": "À vérifier"}}}, {"type": "Feature", "geometry": {"type": "Point", "coordinates": [6.286277, 49.876126]}, "properties": {"id": "lu-camp-0060", "name": "Campingplatz Sauer-Our", "theme": "camping", "description": "", "links": [{"label": "🌐 Site officiel", "url": "https://www.eifelidyll.de/campingplatze/campingplatz-sauer-our/"}, {"label": "🔎 Infos", "url": "https://www.google.com/search?q=Campingplatz%20Sauer-Our%20Luxembourg"}], "photos": [], "details": {"fiche": "Référencé"}}}, {"type": "Feature", "geometry": {"type": "Point", "coordinates": [6.125494, 50.093535]}, "properties": {"id": "lu-camp-0061", "name": "Campingplatz Tintesmühle", "theme": "camping", "description": "Tintesmühle (en luxembourgeois : Tëntesmillen ) est une localité de la commune luxembourgeoise de Clervaux située dans le canton de Clervaux.", "links": [{"label": "🌐 Site officiel", "url": "https://www.campingtintesmuehle.lu/"}, {"label": "🔗 Wikipédia", "url": "https://fr.wikipedia.org/wiki/Tintesm%C3%BChle"}, {"label": "🔎 Infos", "url": "https://www.google.com/search?q=Campingplatz%20Tintesm%C3%BChle%20Luxembourg"}], "photos": ["https://upload.wikimedia.org/wikipedia/commons/thumb/2/25/Tentesmillen04.jpg/960px-Tentesmillen04.jpg"], "details": {"fiche": "Référencé"}}}, {"type": "Feature", "geometry": {"type": "Point", "coordinates": [6.244871, 49.621884]}, "properties": {"id": "lu-camp-0062", "name": "Centre de Formation et d'Animation Neihaischen", "theme": "camping", "description": "", "links": [{"label": "🔎 Infos", "url": "https://www.google.com/search?q=Centre%20de%20Formation%20et%20d%27Animation%20Neihaischen%20Luxembourg"}], "photos": [], "details": {"fiche": "À vérifier"}}}, {"type": "Feature", "geometry": {"type": "Point", "coordinates": [5.994683, 49.879364]}, "properties": {"id": "lu-camp-0063", "name": "De Reenert", "theme": "camping", "description": "", "links": [{"label": "🌐 Site officiel", "url": "https://www.reenert.lu/"}, {"label": "🔎 Infos", "url": "https://www.google.com/search?q=De%20Reenert%20Luxembourg"}], "photos": [], "details": {"fiche": "Référencé"}}}, {"type": "Feature", "geometry": {"type": "Point", "coordinates": [6.134791, 50.017679]}, "properties": {"id": "lu-camp-0064", "name": "Euro Parcs Kohnenhof", "theme": "camping", "description": "", "links": [{"label": "🔎 Infos", "url": "https://www.google.com/search?q=Euro%20Parcs%20Kohnenhof%20Luxembourg"}], "photos": [], "details": {"fiche": "À vérifier"}}}, {"type": "Feature", "geometry": {"type": "Point", "coordinates": [6.338533, 49.778111]}, "properties": {"id": "lu-camp-0065", "name": "Garden-Parc", "theme": "camping", "description": "", "links": [{"label": "🌐 Site officiel", "url": "https://www.camping.lu/fr/campings/garden-park-consdorf"}, {"label": "🔎 Infos", "url": "https://www.google.com/search?q=Garden-Parc%20Luxembourg"}], "photos": [], "details": {"fiche": "Référencé"}}}, {"type": "Feature", "geometry": {"type": "Point", "coordinates": [6.077511, 49.479954]}, "properties": {"id": "lu-camp-0066", "name": "Gréng Scouten a Guiden", "theme": "camping", "description": "", "links": [{"label": "🌐 Site officiel", "url": "https://scoutcenter.lu/"}, {"label": "🔎 Infos", "url": "https://www.google.com/search?q=Gr%C3%A9ng%20Scouten%20a%20Guiden%20Luxembourg"}], "photos": [], "details": {"fiche": "Référencé"}}}, {"type": "Feature", "geometry": {"type": "Point", "coordinates": [6.107289, 49.571836]}, "properties": {"id": "lu-camp-0067", "name": "Kockelscheuer", "theme": "camping", "description": "", "links": [{"label": "🌐 Site officiel", "url": "https://en.ccclv.lu/"}, {"label": "🔎 Infos", "url": "https://www.google.com/search?q=Kockelscheuer%20Luxembourg"}], "photos": [], "details": {"fiche": "Référencé"}}}, {"type": "Feature", "geometry": {"type": "Point", "coordinates": [6.33077, 49.779866]}, "properties": {"id": "lu-camp-0068", "name": "La Pinede", "theme": "camping", "description": "", "links": [{"label": "🌐 Site officiel", "url": "https://www.visitconsdorf.lu/fr/loger-manger/campings"}, {"label": "🔎 Infos", "url": "https://www.google.com/search?q=La%20Pinede%20Luxembourg"}], "photos": [], "details": {"fiche": "Référencé"}}}, {"type": "Feature", "geometry": {"type": "Point", "coordinates": [6.330135, 49.831901]}, "properties": {"id": "lu-camp-0069", "name": "Letzcamp", "theme": "camping", "description": "", "links": [{"label": "🌐 Site officiel", "url": "https://letzcamp.lu/"}, {"label": "🔎 Infos", "url": "https://www.google.com/search?q=Letzcamp%20Luxembourg"}], "photos": [], "details": {"fiche": "Référencé"}}}, {"type": "Feature", "geometry": {"type": "Point", "coordinates": [6.060469, 49.49317]}, "properties": {"id": "lu-camp-0070", "name": "Lëtzebuerger Guiden a Scouten, Saint-Jean Diddeleng", "theme": "camping", "description": "", "links": [{"label": "🔎 Infos", "url": "https://www.google.com/search?q=L%C3%ABtzebuerger%20Guiden%20a%20Scouten%2C%20Saint-Jean%20Diddeleng%20Luxembourg"}], "photos": [], "details": {"fiche": "À vérifier"}}}, {"type": "Feature", "geometry": {"type": "Point", "coordinates": [5.944572, 49.966478]}, "properties": {"id": "lu-camp-0071", "name": "Marmottes", "theme": "camping", "description": "", "links": [{"label": "🔎 Infos", "url": "https://www.google.com/search?q=Marmottes%20Luxembourg"}], "photos": [], "details": {"fiche": "À vérifier"}}}, {"type": "Feature", "geometry": {"type": "Point", "coordinates": [6.342713, 49.826008]}, "properties": {"id": "lu-camp-0072", "name": "Martbusch", "theme": "camping", "description": "", "links": [{"label": "🌐 Site officiel", "url": "https://camping-martbusch.lu/"}, {"label": "🔎 Infos", "url": "https://www.google.com/search?q=Martbusch%20Luxembourg"}], "photos": [], "details": {"fiche": "Référencé"}}}, {"type": "Feature", "geometry": {"type": "Point", "coordinates": [5.829699, 49.867039]}, "properties": {"id": "lu-camp-0073", "name": "Misärshaff", "theme": "camping", "description": "", "links": [{"label": "🌐 Site officiel", "url": "https://misaershaff.lu/"}, {"label": "🔎 Infos", "url": "https://www.google.com/search?q=Mis%C3%A4rshaff%20Luxembourg"}], "photos": [], "details": {"fiche": "Référencé"}}}, {"type": "Feature", "geometry": {"type": "Point", "coordinates": [6.005528, 49.534396]}, "properties": {"id": "lu-camp-0074", "name": "Monnerecher Scouten", "theme": "camping", "description": "", "links": [{"label": "🔎 Infos", "url": "https://www.google.com/search?q=Monnerecher%20Scouten%20Luxembourg"}], "photos": [], "details": {"fiche": "À vérifier"}}}, {"type": "Feature", "geometry": {"type": "Point", "coordinates": [6.165773, 49.783914]}, "properties": {"id": "lu-camp-0075", "name": "Nommerlayen", "theme": "camping", "description": "", "links": [{"label": "🌐 Site officiel", "url": "https://www.nommerlayen-ec.lu/"}, {"label": "🔎 Infos", "url": "https://www.google.com/search?q=Nommerlayen%20Luxembourg"}], "photos": [], "details": {"fiche": "Référencé"}}}, {"type": "Feature", "geometry": {"type": "Point", "coordinates": [6.037876, 50.053592]}, "properties": {"id": "lu-camp-0076", "name": "Reiler Weier", "theme": "camping", "description": "", "links": [{"label": "🌐 Site officiel", "url": "https://reilerweier.lu/de/"}, {"label": "🔎 Infos", "url": "https://www.google.com/search?q=Reiler%20Weier%20Luxembourg"}], "photos": [], "details": {"fiche": "Référencé"}}}, {"type": "Feature", "geometry": {"type": "Point", "coordinates": [5.790144, 49.933007]}, "properties": {"id": "lu-camp-0077", "name": "Saint Hubert", "theme": "camping", "description": "", "links": [{"label": "🔎 Infos", "url": "https://www.google.com/search?q=Saint%20Hubert%20Luxembourg"}], "photos": [], "details": {"fiche": "À vérifier"}}}, {"type": "Feature", "geometry": {"type": "Point", "coordinates": [6.012365, 49.47868]}, "properties": {"id": "lu-camp-0078", "name": "Scout", "theme": "camping", "description": "", "links": [{"label": "🔎 Infos", "url": "https://www.google.com/search?q=Scout%20Luxembourg"}], "photos": [], "details": {"fiche": "À vérifier"}}}, {"type": "Feature", "geometry": {"type": "Point", "coordinates": [6.397399, 49.819059]}, "properties": {"id": "lu-camp-0079", "name": "Scout Camp Echternach", "theme": "camping", "description": "", "links": [{"label": "🌐 Site officiel", "url": "https://www.camp-scout.lu/"}, {"label": "🔎 Infos", "url": "https://www.google.com/search?q=Scout%20Camp%20Echternach%20Luxembourg"}], "photos": [], "details": {"fiche": "Référencé"}}}, {"type": "Feature", "geometry": {"type": "Point", "coordinates": [5.926722, 49.959103]}, "properties": {"id": "lu-camp-0080", "name": "Scout camp Aigles", "theme": "camping", "description": "", "links": [{"label": "🔎 Infos", "url": "https://www.google.com/search?q=Scout%20camp%20Aigles%20Luxembourg"}], "photos": [], "details": {"fiche": "À vérifier"}}}, {"type": "Feature", "geometry": {"type": "Point", "coordinates": [6.192986, 49.515609]}, "properties": {"id": "lu-camp-0081", "name": "Site Bisons Futés", "theme": "camping", "description": "", "links": [{"label": "🔎 Infos", "url": "https://www.google.com/search?q=Site%20Bisons%20Fut%C3%A9s%20Luxembourg"}], "photos": [], "details": {"fiche": "À vérifier"}}}, {"type": "Feature", "geometry": {"type": "Point", "coordinates": [6.220269, 49.873196]}, "properties": {"id": "lu-camp-0082", "name": "Um Wirt", "theme": "camping", "description": "La gare de Bettendorf était une gare ferroviaire luxembourgeoise de la ligne d'Ettelbruck à Grevenmacher, située sur le territoire de la commune de Bettendorf, dans le canton de Diekirch.", "links": [{"label": "🔗 Wikipédia", "url": "https://fr.wikipedia.org/wiki/Gare_de_Bettendorf"}, {"label": "🔎 Infos", "url": "https://www.google.com/search?q=Um%20Wirt%20Luxembourg"}], "photos": ["https://upload.wikimedia.org/wikipedia/commons/thumb/8/80/Bettendorf%2C_ancienne_gare_%28101%29.jpg/960px-Bettendorf%2C_ancienne_gare_%28101%29.jpg"], "details": {"fiche": "Référencé"}}}, {"type": "Feature", "geometry": {"type": "Point", "coordinates": [5.992158, 49.999812]}, "properties": {"id": "lu-camp-0083", "name": "Val d'Or", "theme": "camping", "description": "Enscherange (luxembourgeois : Äischer, allemand : Enscheringen) est une section de la commune luxembourgeoise de Kiischpelt située dans le canton de Wiltz.", "links": [{"label": "🌐 Site officiel", "url": "https://www.valdor.lu"}, {"label": "🔗 Wikipédia", "url": "https://fr.wikipedia.org/wiki/Enscherange"}, {"label": "🔎 Infos", "url": "https://www.google.com/search?q=Val%20d%27Or%20Luxembourg"}], "photos": ["https://upload.wikimedia.org/wikipedia/commons/e/ef/Kierch_%C3%84ischer_baussen.jpg"], "details": {"fiche": "Référencé"}}}, {"type": "Feature", "geometry": {"type": "Point", "coordinates": [6.148217, 50.007413]}, "properties": {"id": "lu-camp-0084", "name": "Vieux Moulin", "theme": "camping", "description": "", "links": [{"label": "🔎 Infos", "url": "https://www.google.com/search?q=Vieux%20Moulin%20Luxembourg"}], "photos": [], "details": {"fiche": "À vérifier"}}}, {"type": "Feature", "geometry": {"type": "Point", "coordinates": [6.321337, 49.850381]}, "properties": {"id": "lu-camp-0085", "name": "Wies-Neu", "theme": "camping", "description": "", "links": [{"label": "🌐 Site officiel", "url": "https://www.camping-wies-neu.lu/"}, {"label": "🔎 Infos", "url": "https://www.google.com/search?q=Wies-Neu%20Luxembourg"}], "photos": [], "details": {"fiche": "Référencé"}}}, {"type": "Feature", "geometry": {"type": "Point", "coordinates": [5.943373, 49.967557]}, "properties": {"id": "lu-camp-0086", "name": "Wiltz International Scout Centre / Camp 19 (Renards - Fox - Fuchs)", "theme": "camping", "description": "", "links": [{"label": "🌐 Site officiel", "url": "https://scoutswiltz.lu"}, {"label": "🔎 Infos", "url": "https://www.google.com/search?q=Wiltz%20International%20Scout%20Centre%20/%20Camp%2019%20%28Renards%20-%20Fox%20-%20Fuchs%29%20Luxembourg"}], "photos": [], "details": {"fiche": "Référencé"}}}, {"type": "Feature", "geometry": {"type": "Point", "coordinates": [5.939367, 49.96904]}, "properties": {"id": "lu-camp-0087", "name": "Wiltz International Scout Centre / Camp Castors", "theme": "camping", "description": "", "links": [{"label": "🔎 Infos", "url": "https://www.google.com/search?q=Wiltz%20International%20Scout%20Centre%20/%20Camp%20Castors%20Luxembourg"}], "photos": [], "details": {"fiche": "À vérifier"}}}, {"type": "Feature", "geometry": {"type": "Point", "coordinates": [6.184565, 49.618129]}, "properties": {"id": "lu-lac-0001", "name": "A2", "theme": "lac", "description": "", "links": [{"label": "🔎 Infos", "url": "https://www.google.com/search?q=A2%20Luxembourg"}], "photos": [], "details": {"fiche": "À vérifier"}}}, {"type": "Feature", "geometry": {"type": "Point", "coordinates": [6.184066, 49.617597]}, "properties": {"id": "lu-lac-0002", "name": "A3", "theme": "lac", "description": "", "links": [{"label": "🔎 Infos", "url": "https://www.google.com/search?q=A3%20Luxembourg"}], "photos": [], "details": {"fiche": "À vérifier"}}}, {"type": "Feature", "geometry": {"type": "Point", "coordinates": [6.200758, 49.601874]}, "properties": {"id": "lu-lac-0003", "name": "Ale Weier", "theme": "lac", "description": "", "links": [{"label": "🔎 Infos", "url": "https://www.google.com/search?q=Ale%20Weier%20Luxembourg"}], "photos": [], "details": {"fiche": "À vérifier"}}}, {"type": "Feature", "geometry": {"type": "Point", "coordinates": [6.281674, 49.839672]}, "properties": {"id": "lu-lac-0004", "name": "Ale Weier", "theme": "lac", "description": "", "links": [{"label": "🔎 Infos", "url": "https://www.google.com/search?q=Ale%20Weier%20Luxembourg"}], "photos": [], "details": {"fiche": "À vérifier"}}}, {"type": "Feature", "geometry": {"type": "Point", "coordinates": [5.931363, 49.50434]}, "properties": {"id": "lu-lac-0005", "name": "Bassin d'Orage", "theme": "lac", "description": "", "links": [{"label": "🔎 Infos", "url": "https://www.google.com/search?q=Bassin%20d%27Orage%20Luxembourg"}], "photos": [], "details": {"fiche": "À vérifier"}}}, {"type": "Feature", "geometry": {"type": "Point", "coordinates": [5.947569, 49.508543]}, "properties": {"id": "lu-lac-0006", "name": "Bassin d'Orage", "theme": "lac", "description": "", "links": [{"label": "🔎 Infos", "url": "https://www.google.com/search?q=Bassin%20d%27Orage%20Luxembourg"}], "photos": [], "details": {"fiche": "À vérifier"}}}, {"type": "Feature", "geometry": {"type": "Point", "coordinates": [6.177263, 49.939898]}, "properties": {"id": "lu-lac-0007", "name": "Bassins supérieurs", "theme": "lac", "description": "", "links": [{"label": "🔎 Infos", "url": "https://www.google.com/search?q=Bassins%20sup%C3%A9rieurs%20Luxembourg"}], "photos": [], "details": {"fiche": "À vérifier"}}}, {"type": "Feature", "geometry": {"type": "Point", "coordinates": [6.173163, 49.946218]}, "properties": {"id": "lu-lac-0008", "name": "Bassins supérieurs", "theme": "lac", "description": "", "links": [{"label": "🔎 Infos", "url": "https://www.google.com/search?q=Bassins%20sup%C3%A9rieurs%20Luxembourg"}], "photos": [], "details": {"fiche": "À vérifier"}}}, {"type": "Feature", "geometry": {"type": "Point", "coordinates": [6.09782, 49.657964]}, "properties": {"id": "lu-lac-0009", "name": "Gipsweieren", "theme": "lac", "description": "", "links": [{"label": "🔎 Infos", "url": "https://www.google.com/search?q=Gipsweieren%20Luxembourg"}], "photos": [], "details": {"fiche": "À vérifier"}}}, {"type": "Feature", "geometry": {"type": "Point", "coordinates": [6.098986, 49.658489]}, "properties": {"id": "lu-lac-0010", "name": "Gipsweieren", "theme": "lac", "description": "", "links": [{"label": "🔎 Infos", "url": "https://www.google.com/search?q=Gipsweieren%20Luxembourg"}], "photos": [], "details": {"fiche": "À vérifier"}}}, {"type": "Feature", "geometry": {"type": "Point", "coordinates": [6.412779, 49.799063]}, "properties": {"id": "lu-lac-0011", "name": "Lac d'Echternach", "theme": "lac", "description": "Le lac d'Echternach est un lac artificiel créé au sud-ouest de la ville d'Echternach, à la fin des années 1970.", "links": [{"label": "🔗 Wikipédia", "url": "https://fr.wikipedia.org/wiki/Lac_d%27Echternach"}, {"label": "🔎 Infos", "url": "https://www.google.com/search?q=Lac%20d%27Echternach%20Luxembourg"}], "photos": ["https://upload.wikimedia.org/wikipedia/commons/e/e3/Iechterncher_S%C3%A9i_beta_w_2-5.jpg"], "details": {"fiche": "Référencé"}}}, {"type": "Feature", "geometry": {"type": "Point", "coordinates": [6.067723, 50.138148]}, "properties": {"id": "lu-lac-0012", "name": "Lac de Weiswampach", "theme": "lac", "description": "Les lacs de Weiswampach sont un ensemble de deux lacs artificiels à Weiswampach au Luxembourg.", "links": [{"label": "🔗 Wikipédia", "url": "https://fr.wikipedia.org/wiki/Lacs_de_Weiswampach"}, {"label": "🔎 Infos", "url": "https://www.google.com/search?q=Lac%20de%20Weiswampach%20Luxembourg"}], "photos": ["https://upload.wikimedia.org/wikipedia/commons/thumb/a/ad/Weiswampach_W%C3%A4mper_S%C3%A9i_103.jpg/960px-Weiswampach_W%C3%A4mper_S%C3%A9i_103.jpg"], "details": {"fiche": "Référencé"}}}, {"type": "Feature", "geometry": {"type": "Point", "coordinates": [5.871065, 49.892746]}, "properties": {"id": "lu-lac-0013", "name": "Lac de la Haute-Sûre", "theme": "lac", "description": "", "links": [{"label": "🔎 Infos", "url": "https://www.google.com/search?q=Lac%20de%20la%20Haute-S%C3%BBre%20Luxembourg"}], "photos": [], "details": {"fiche": "À vérifier"}}}, {"type": "Feature", "geometry": {"type": "Point", "coordinates": [6.289167, 49.59876]}, "properties": {"id": "lu-lac-0014", "name": "Neie Weier", "theme": "lac", "description": "", "links": [{"label": "🔎 Infos", "url": "https://www.google.com/search?q=Neie%20Weier%20Luxembourg"}], "photos": [], "details": {"fiche": "À vérifier"}}}, {"type": "Feature", "geometry": {"type": "Point", "coordinates": [6.198045, 49.600505]}, "properties": {"id": "lu-lac-0015", "name": "Nessesch Weier", "theme": "lac", "description": "", "links": [{"label": "🔎 Infos", "url": "https://www.google.com/search?q=Nessesch%20Weier%20Luxembourg"}], "photos": [], "details": {"fiche": "À vérifier"}}}, {"type": "Feature", "geometry": {"type": "Point", "coordinates": [6.148153, 49.665805]}, "properties": {"id": "lu-lac-0016", "name": "Qanatwasserloch", "theme": "lac", "description": "", "links": [{"label": "🔎 Infos", "url": "https://www.google.com/search?q=Qanatwasserloch%20Luxembourg"}], "photos": [], "details": {"fiche": "À vérifier"}}}, {"type": "Feature", "geometry": {"type": "Point", "coordinates": [6.360394, 49.489593]}, "properties": {"id": "lu-lac-0017", "name": "Riemescher Weieren", "theme": "lac", "description": "", "links": [{"label": "🔎 Infos", "url": "https://www.google.com/search?q=Riemescher%20Weieren%20Luxembourg"}], "photos": [], "details": {"fiche": "À vérifier"}}}, {"type": "Feature", "geometry": {"type": "Point", "coordinates": [6.00083, 49.569331]}, "properties": {"id": "lu-lac-0018", "name": "Rückstaukanal", "theme": "lac", "description": "", "links": [{"label": "🌐 Site officiel", "url": "https://sivec.lu/"}, {"label": "🔎 Infos", "url": "https://www.google.com/search?q=R%C3%BCckstaukanal%20Luxembourg"}], "photos": [], "details": {"fiche": "Référencé"}}}, {"type": "Feature", "geometry": {"type": "Point", "coordinates": [6.053901, 49.686982]}, "properties": {"id": "lu-lac-0019", "name": "Settling basin", "theme": "lac", "description": "", "links": [{"label": "🔎 Infos", "url": "https://www.google.com/search?q=Settling%20basin%20Luxembourg"}], "photos": [], "details": {"fiche": "À vérifier"}}}, {"type": "Feature", "geometry": {"type": "Point", "coordinates": [5.918324, 49.657549]}, "properties": {"id": "lu-lac-0020", "name": "Stengeforter Weier", "theme": "lac", "description": "", "links": [{"label": "🔎 Infos", "url": "https://www.google.com/search?q=Stengeforter%20Weier%20Luxembourg"}], "photos": [], "details": {"fiche": "À vérifier"}}}, {"type": "Feature", "geometry": {"type": "Point", "coordinates": [6.242628, 49.743817]}, "properties": {"id": "lu-lac-0021", "name": "Waldweiher", "theme": "lac", "description": "", "links": [{"label": "🔎 Infos", "url": "https://www.google.com/search?q=Waldweiher%20Luxembourg"}], "photos": [], "details": {"fiche": "À vérifier"}}}, {"type": "Feature", "geometry": {"type": "Point", "coordinates": [6.068476, 49.659244]}, "properties": {"id": "lu-lac-0022", "name": "Étang du Centre de l'Oseraie", "theme": "lac", "description": "", "links": [{"label": "🔎 Infos", "url": "https://www.google.com/search?q=%C3%89tang%20du%20Centre%20de%20l%27Oseraie%20Luxembourg"}], "photos": [], "details": {"fiche": "À vérifier"}}}, {"type": "Feature", "geometry": {"type": "Point", "coordinates": [6.206265, 49.786766]}, "properties": {"id": "lu-casc-0001", "name": "Hangelsbour", "theme": "cascade", "description": "", "links": [{"label": "🔎 Infos", "url": "https://www.google.com/search?q=Hangelsbour%20Luxembourg"}], "photos": [], "details": {"fiche": "À vérifier"}}}, {"type": "Feature", "geometry": {"type": "Point", "coordinates": [6.285153, 49.771341]}, "properties": {"id": "lu-casc-0002", "name": "Kallektuffquell", "theme": "cascade", "description": "", "links": [{"label": "🔎 Infos", "url": "https://www.google.com/search?q=Kallektuffquell%20Luxembourg"}], "photos": [], "details": {"hauteur": "3 m", "fiche": "À vérifier"}}}, {"type": "Feature", "geometry": {"type": "Point", "coordinates": [6.299296, 49.785105]}, "properties": {"id": "lu-casc-0003", "name": "Schiessentümpel", "theme": "cascade", "description": "", "links": [{"label": "🔎 Infos", "url": "https://www.google.com/search?q=Schiessent%C3%BCmpel%20Luxembourg"}], "photos": [], "details": {"hauteur": "2 m", "fiche": "À vérifier"}}}, {"type": "Feature", "geometry": {"type": "Point", "coordinates": [6.338506, 49.825184]}, "properties": {"id": "lu-grot-0001", "name": "Adlerhorst - Aire de l'aigle", "theme": "grotte", "description": "", "links": [{"label": "🔎 Infos", "url": "https://www.google.com/search?q=Adlerhorst%20-%20Aire%20de%20l%27aigle%20Luxembourg"}], "photos": [], "details": {"type": "Grotte", "fiche": "À vérifier"}}}, {"type": "Feature", "geometry": {"type": "Point", "coordinates": [5.844583, 49.516356]}, "properties": {"id": "lu-grot-0002", "name": "Ancienne mine", "theme": "grotte", "description": "", "links": [{"label": "🔎 Infos", "url": "https://www.google.com/search?q=Ancienne%20mine%20Luxembourg"}], "photos": [], "details": {"type": "Grotte", "fiche": "À vérifier"}}}, {"type": "Feature", "geometry": {"type": "Point", "coordinates": [5.984998, 49.476405]}, "properties": {"id": "lu-grot-0003", "name": "Arbed 1914", "theme": "grotte", "description": "", "links": [{"label": "🔎 Infos", "url": "https://www.google.com/search?q=Arbed%201914%20Luxembourg"}], "photos": [], "details": {"type": "Grotte", "fiche": "À vérifier"}}}, {"type": "Feature", "geometry": {"type": "Point", "coordinates": [6.126101, 49.613202]}, "properties": {"id": "lu-grot-0004", "name": "Bastion Marie", "theme": "grotte", "description": "Le boulevard Royal est une voie de la ville de Luxembourg.", "links": [{"label": "🔗 Wikipédia", "url": "https://fr.wikipedia.org/wiki/Boulevard_Royal"}, {"label": "🔎 Infos", "url": "https://www.google.com/search?q=Bastion%20Marie%20Luxembourg"}], "photos": ["https://upload.wikimedia.org/wikipedia/commons/thumb/9/94/Luxembourg%2C_bd_Royal_11-2020_%28103%29.jpg/960px-Luxembourg%2C_bd_Royal_11-2020_%28103%29.jpg"], "details": {"type": "Grotte", "fiche": "Référencé"}}}, {"type": "Feature", "geometry": {"type": "Point", "coordinates": [6.087545, 49.692968]}, "properties": {"id": "lu-grot-0005", "name": "Eilelay", "theme": "grotte", "description": "", "links": [{"label": "🔎 Infos", "url": "https://www.google.com/search?q=Eilelay%20Luxembourg"}], "photos": [], "details": {"type": "Grotte", "fiche": "À vérifier"}}}, {"type": "Feature", "geometry": {"type": "Point", "coordinates": [6.004616, 49.495594]}, "properties": {"id": "lu-grot-0006", "name": "Eisenerzgrube", "theme": "grotte", "description": "", "links": [{"label": "🔎 Infos", "url": "https://www.google.com/search?q=Eisenerzgrube%20Luxembourg"}], "photos": [], "details": {"type": "Grotte", "fiche": "À vérifier"}}}, {"type": "Feature", "geometry": {"type": "Point", "coordinates": [6.135744, 49.617232]}, "properties": {"id": "lu-grot-0007", "name": "Entrée Fort Niedergrünewald", "theme": "grotte", "description": "Le fort Thüngen est un édifice militaire du Luxembourg situé au parc Dräi Eechelen (mots luxembourgeois ; en allemand : Drei Eicheln, en français Trois Glands).", "links": [{"label": "🔗 Wikipédia", "url": "https://fr.wikipedia.org/wiki/Fort_Th%C3%BCngen"}, {"label": "🔎 Infos", "url": "https://www.google.com/search?q=Entr%C3%A9e%20Fort%20Niedergr%C3%BCnewald%20Luxembourg"}], "photos": ["https://upload.wikimedia.org/wikipedia/commons/thumb/6/69/Fuerte_Th%C3%BCngen%2C_ciudad_de_Luxemburgo%2C_Luxemburgo%2C_2023-12-16%2C_DD_148.jpg/960px-Fuerte_Th%C3%BCngen%2C_ciudad_de_Luxemburgo%2C_Luxemburgo%2C_2023-12-16%2C_DD_148.jpg"], "details": {"type": "Grotte", "fiche": "Référencé"}}}, {"type": "Feature", "geometry": {"type": "Point", "coordinates": [6.13633, 49.618971]}, "properties": {"id": "lu-grot-0008", "name": "Entrée Fort Olizy", "theme": "grotte", "description": "", "links": [{"label": "🔎 Infos", "url": "https://www.google.com/search?q=Entr%C3%A9e%20Fort%20Olizy%20Luxembourg"}], "photos": [], "details": {"type": "Grotte", "fiche": "À vérifier"}}}, {"type": "Feature", "geometry": {"type": "Point", "coordinates": [6.129321, 49.615083]}, "properties": {"id": "lu-grot-0009", "name": "Fort Berlaimont", "theme": "grotte", "description": "La Banque centrale du Luxembourg (BCL) a été instituée par les lois du 22 avril 1998 et du 23 décembre 1998.", "links": [{"label": "🔗 Wikipédia", "url": "https://fr.wikipedia.org/wiki/Banque_centrale_du_Luxembourg"}, {"label": "🔎 Infos", "url": "https://www.google.com/search?q=Fort%20Berlaimont%20Luxembourg"}], "photos": ["https://upload.wikimedia.org/wikipedia/commons/thumb/a/a7/Central_Bank_of_Luxembourg_-_Banque_centrale_du_Luxembourg.jpg/960px-Central_Bank_of_Luxembourg_-_Banque_centrale_du_Luxembourg.jpg"], "details": {"type": "Grotte", "fiche": "Référencé"}}}, {"type": "Feature", "geometry": {"type": "Point", "coordinates": [6.124394, 49.609961]}, "properties": {"id": "lu-grot-0010", "name": "Fort Lambert", "theme": "grotte", "description": "", "links": [{"label": "🔎 Infos", "url": "https://www.google.com/search?q=Fort%20Lambert%20Luxembourg"}], "photos": [], "details": {"type": "Grotte", "fiche": "À vérifier"}}}, {"type": "Feature", "geometry": {"type": "Point", "coordinates": [6.124016, 49.611269]}, "properties": {"id": "lu-grot-0011", "name": "Fort Louvigny", "theme": "grotte", "description": "L'Hotel Rix était un hôtel dans la ville-haute de Luxembourg.", "links": [{"label": "🔗 Wikipédia", "url": "https://fr.wikipedia.org/wiki/H%C3%B4tel_Rix"}, {"label": "🔎 Infos", "url": "https://www.google.com/search?q=Fort%20Louvigny%20Luxembourg"}], "photos": [], "details": {"type": "Grotte", "fiche": "Référencé"}}}, {"type": "Feature", "geometry": {"type": "Point", "coordinates": [6.126268, 49.614954]}, "properties": {"id": "lu-grot-0012", "name": "Fort Royal", "theme": "grotte", "description": "La General Mediterranean Holding (ou GenMed) est la société financière holding qui chapeaute l'empire de l'intermédiaire anglo-irakien Nadhmi Auchi.", "links": [{"label": "🔗 Wikipédia", "url": "https://fr.wikipedia.org/wiki/General_Mediterranean_Holding"}, {"label": "🔎 Infos", "url": "https://www.google.com/search?q=Fort%20Royal%20Luxembourg"}], "photos": [], "details": {"type": "Grotte", "fiche": "Référencé"}}}, {"type": "Feature", "geometry": {"type": "Point", "coordinates": [6.124212, 49.612694]}, "properties": {"id": "lu-grot-0013", "name": "Fort Vauban", "theme": "grotte", "description": "L’avenue Émile-Reuter est une avenue de la ville de Luxembourg.", "links": [{"label": "🔗 Wikipédia", "url": "https://fr.wikipedia.org/wiki/Avenue_%C3%89mile-Reuter"}, {"label": "🔎 Infos", "url": "https://www.google.com/search?q=Fort%20Vauban%20Luxembourg"}], "photos": ["https://upload.wikimedia.org/wikipedia/commons/thumb/8/84/Luxembourg_Avenue_Emile_Reuter_nom_de_rue.JPG/960px-Luxembourg_Avenue_Emile_Reuter_nom_de_rue.JPG"], "details": {"type": "Grotte", "fiche": "Référencé"}}}, {"type": "Feature", "geometry": {"type": "Point", "coordinates": [6.151019, 49.696555]}, "properties": {"id": "lu-grot-0014", "name": "Gourmanglay", "theme": "grotte", "description": "", "links": [{"label": "🔎 Infos", "url": "https://www.google.com/search?q=Gourmanglay%20Luxembourg"}], "photos": [], "details": {"type": "Grotte", "fiche": "À vérifier"}}}, {"type": "Feature", "geometry": {"type": "Point", "coordinates": [6.318232, 49.797637]}, "properties": {"id": "lu-grot-0015", "name": "Grotte Sainte-Barbe, Entrée 2", "theme": "grotte", "description": "Cave under the protection of the \"Minstère des Eaux et Forêts\". Visiting is forbidden from October 15th to April 15th to protect hibernating bat population.", "links": [{"label": "🌐 Site officiel", "url": "http://www.speleo.lu/caves/muellerthal/ste-barbe.php"}, {"label": "🔎 Infos", "url": "https://www.google.com/search?q=Grotte%20Sainte-Barbe%2C%20Entr%C3%A9e%202%20Luxembourg"}], "photos": [], "details": {"type": "Grotte", "fiche": "Référencé"}}}, {"type": "Feature", "geometry": {"type": "Point", "coordinates": [6.320428, 49.800627]}, "properties": {"id": "lu-grot-0016", "name": "Grotte St Jean", "theme": "grotte", "description": "", "links": [{"label": "🔎 Infos", "url": "https://www.google.com/search?q=Grotte%20St%20Jean%20Luxembourg"}], "photos": [], "details": {"type": "Grotte", "fiche": "À vérifier"}}}, {"type": "Feature", "geometry": {"type": "Point", "coordinates": [6.122439, 49.630297]}, "properties": {"id": "lu-grot-0017", "name": "Grotte de Muhlenbach", "theme": "grotte", "description": "", "links": [{"label": "🔎 Infos", "url": "https://www.google.com/search?q=Grotte%20de%20Muhlenbach%20Luxembourg"}], "photos": [], "details": {"type": "Grotte", "fiche": "À vérifier"}}}, {"type": "Feature", "geometry": {"type": "Point", "coordinates": [6.31762, 49.797421]}, "properties": {"id": "lu-grot-0018", "name": "Grotte des Celtes", "theme": "grotte", "description": "", "links": [{"label": "🌐 Site officiel", "url": "http://www.speleo.lu/caves/muellerthal/keltenhiel.php"}, {"label": "🔎 Infos", "url": "https://www.google.com/search?q=Grotte%20des%20Celtes%20Luxembourg"}], "photos": [], "details": {"type": "Grotte", "fiche": "Référencé"}}}, {"type": "Feature", "geometry": {"type": "Point", "coordinates": [6.164868, 49.779813]}, "properties": {"id": "lu-grot-0019", "name": "Hexelee", "theme": "grotte", "description": "", "links": [{"label": "🔎 Infos", "url": "https://www.google.com/search?q=Hexelee%20Luxembourg"}], "photos": [], "details": {"type": "Grotte", "fiche": "À vérifier"}}}, {"type": "Feature", "geometry": {"type": "Point", "coordinates": [6.143603, 49.569525]}, "properties": {"id": "lu-grot-0020", "name": "Hollemollefiels", "theme": "grotte", "description": "", "links": [{"label": "🔎 Infos", "url": "https://www.google.com/search?q=Hollemollefiels%20Luxembourg"}], "photos": [], "details": {"type": "Grotte", "fiche": "À vérifier"}}}, {"type": "Feature", "geometry": {"type": "Point", "coordinates": [6.107715, 49.674474]}, "properties": {"id": "lu-grot-0021", "name": "Huel Kimmerchen", "theme": "grotte", "description": "", "links": [{"label": "🔎 Infos", "url": "https://www.google.com/search?q=Huel%20Kimmerchen%20Luxembourg"}], "photos": [], "details": {"type": "Grotte", "fiche": "À vérifier"}}}, {"type": "Feature", "geometry": {"type": "Point", "coordinates": [6.092217, 49.7214]}, "properties": {"id": "lu-grot-0022", "name": "Huellee", "theme": "grotte", "description": "", "links": [{"label": "🌐 Site officiel", "url": "https://www.mersch.lu/4b%20Mersch%20-%20prehistorical%20remains.pdf?FileID=publications%2F4b+mersch+-+prehistorical+remains.pdf"}, {"label": "🔎 Infos", "url": "https://www.google.com/search?q=Huellee%20Luxembourg"}], "photos": [], "details": {"type": "Grotte", "fiche": "Référencé"}}}, {"type": "Feature", "geometry": {"type": "Point", "coordinates": [6.33812, 49.823614]}, "properties": {"id": "lu-grot-0023", "name": "L'Enfer", "theme": "grotte", "description": "55m deep corridor", "links": [{"label": "🔎 Infos", "url": "https://www.google.com/search?q=L%27Enfer%20Luxembourg"}], "photos": [], "details": {"type": "Grotte", "fiche": "À vérifier"}}}, {"type": "Feature", "geometry": {"type": "Point", "coordinates": [6.095753, 49.732742]}, "properties": {"id": "lu-grot-0024", "name": "Mamerlach", "theme": "grotte", "description": "", "links": [{"label": "🌐 Site officiel", "url": "https://www.mersch.lu/media/db557681-f3c7-44e9-b58b-0b60e6a4348d/depliant-3-spuren-zeugnisse-en.pdf"}, {"label": "🔎 Infos", "url": "https://www.google.com/search?q=Mamerlach%20Luxembourg"}], "photos": [], "details": {"type": "Grotte", "fiche": "Référencé"}}}, {"type": "Feature", "geometry": {"type": "Point", "coordinates": [6.096545, 49.723496]}, "properties": {"id": "lu-grot-0025", "name": "Mamerleeën", "theme": "grotte", "description": "", "links": [{"label": "🔎 Infos", "url": "https://www.google.com/search?q=Mamerlee%C3%ABn%20Luxembourg"}], "photos": [], "details": {"type": "Grotte", "fiche": "À vérifier"}}}, {"type": "Feature", "geometry": {"type": "Point", "coordinates": [5.994919, 49.480774]}, "properties": {"id": "lu-grot-0026", "name": "Mine Heidenfeldchen", "theme": "grotte", "description": "", "links": [{"label": "🔎 Infos", "url": "https://www.google.com/search?q=Mine%20Heidenfeldchen%20Luxembourg"}], "photos": [], "details": {"type": "Grotte", "fiche": "À vérifier"}}}, {"type": "Feature", "geometry": {"type": "Point", "coordinates": [5.97938, 49.477195]}, "properties": {"id": "lu-grot-0027", "name": "Mine Heintzenberg", "theme": "grotte", "description": "", "links": [{"label": "🔎 Infos", "url": "https://www.google.com/search?q=Mine%20Heintzenberg%20Luxembourg"}], "photos": [], "details": {"type": "Grotte", "fiche": "À vérifier"}}}, {"type": "Feature", "geometry": {"type": "Point", "coordinates": [5.884291, 49.531289]}, "properties": {"id": "lu-grot-0028", "name": "Mine Hondsbesch", "theme": "grotte", "description": "", "links": [{"label": "🔎 Infos", "url": "https://www.google.com/search?q=Mine%20Hondsbesch%20Luxembourg"}], "photos": [], "details": {"altitude": "328 m", "altitude_n": 328, "type": "Grotte", "fiche": "À vérifier"}}}, {"type": "Feature", "geometry": {"type": "Point", "coordinates": [5.8387, 49.520084]}, "properties": {"id": "lu-grot-0029", "name": "Mine Lasauvage", "theme": "grotte", "description": "Lasauvage (Zowaasch en luxembourgeois) est une section de la commune luxembourgeoise de Differdange située dans le canton d'Esch-sur-Alzette.", "links": [{"label": "🔗 Wikipédia", "url": "https://fr.wikipedia.org/wiki/Lasauvage"}, {"label": "🔎 Infos", "url": "https://www.google.com/search?q=Mine%20Lasauvage%20Luxembourg"}], "photos": ["https://upload.wikimedia.org/wikipedia/commons/b/b0/Zowaasch1casino1.jpg"], "details": {"altitude": "300 m", "altitude_n": 300, "type": "Grotte", "fiche": "Référencé"}}}, {"type": "Feature", "geometry": {"type": "Point", "coordinates": [5.989821, 49.472759]}, "properties": {"id": "lu-grot-0030", "name": "Mine Prince Henri", "theme": "grotte", "description": "", "links": [{"label": "🔎 Infos", "url": "https://www.google.com/search?q=Mine%20Prince%20Henri%20Luxembourg"}], "photos": [], "details": {"type": "Grotte", "fiche": "À vérifier"}}}, {"type": "Feature", "geometry": {"type": "Point", "coordinates": [5.956679, 49.919872]}, "properties": {"id": "lu-grot-0031", "name": "Mine d'Antimoine Goesdorf - Galerie Principale", "theme": "grotte", "description": "", "links": [{"label": "🔎 Infos", "url": "https://www.google.com/search?q=Mine%20d%27Antimoine%20Goesdorf%20-%20Galerie%20Principale%20Luxembourg"}], "photos": [], "details": {"type": "Grotte", "fiche": "À vérifier"}}}, {"type": "Feature", "geometry": {"type": "Point", "coordinates": [6.344677, 49.765215]}, "properties": {"id": "lu-grot-0032", "name": "Méchelskierch", "theme": "grotte", "description": "Former habitation of an hermit named Michael around 18th century.", "links": [{"label": "🔎 Infos", "url": "https://www.google.com/search?q=M%C3%A9chelskierch%20Luxembourg"}], "photos": [], "details": {"type": "Grotte", "fiche": "À vérifier"}}}, {"type": "Feature", "geometry": {"type": "Point", "coordinates": [6.317859, 49.797359]}, "properties": {"id": "lu-grot-0033", "name": "Nenghis Hiel (L), Kleng Barbe (L), Grotte de la Salamandre (F)", "theme": "grotte", "description": "This entrance collapsed, see 2nd entrance. Cave under the protection of the \"Minstère des Eaux et Forêts\". Visiting is forbidden from October 15th to April 15th to protect hibernating bat population.", "links": [{"label": "🌐 Site officiel", "url": "http://www.speleo.lu/caves/muellerthal/ste-barbe.php;http://www.speleo.lu/caves/muellerthal/nenghishiel.php"}, {"label": "🔎 Infos", "url": "https://www.google.com/search?q=Nenghis%20Hiel%20%28L%29%2C%20Kleng%20Barbe%20%28L%29%2C%20Grotte%20de%20la%20Salamandre%20%28F%29%20Luxembourg"}], "photos": [], "details": {"type": "Grotte", "fiche": "Référencé"}}}, {"type": "Feature", "geometry": {"type": "Point", "coordinates": [6.338294, 49.82495]}, "properties": {"id": "lu-grot-0034", "name": "Raiberhiel", "theme": "grotte", "description": "Die Raiberhiel (auch Reiberhiel, deutsch Räuberhöhle) ist ein Felsenlabyrinth im Müllerthal in Luxemburg.", "links": [{"label": "🔗 Wikipédia", "url": "https://de.wikipedia.org/wiki/Raiberhiel"}, {"label": "🔎 Infos", "url": "https://www.google.com/search?q=Raiberhiel%20Luxembourg"}], "photos": [], "details": {"type": "Grotte", "fiche": "Référencé"}}}, {"type": "Feature", "geometry": {"type": "Point", "coordinates": [6.338432, 49.825138]}, "properties": {"id": "lu-grot-0035", "name": "Raiberhiel", "theme": "grotte", "description": "Die Raiberhiel (auch Reiberhiel, deutsch Räuberhöhle) ist ein Felsenlabyrinth im Müllerthal in Luxemburg.", "links": [{"label": "🔗 Wikipédia", "url": "https://de.wikipedia.org/wiki/Raiberhiel"}, {"label": "🔎 Infos", "url": "https://www.google.com/search?q=Raiberhiel%20Luxembourg"}], "photos": [], "details": {"type": "Grotte", "fiche": "Référencé"}}}, {"type": "Feature", "geometry": {"type": "Point", "coordinates": [6.191929, 49.667569]}, "properties": {"id": "lu-grot-0036", "name": "Schetzelklaus", "theme": "grotte", "description": "", "links": [{"label": "🔎 Infos", "url": "https://www.google.com/search?q=Schetzelklaus%20Luxembourg"}], "photos": [], "details": {"type": "Grotte", "fiche": "À vérifier"}}}, {"type": "Feature", "geometry": {"type": "Point", "coordinates": [6.339017, 49.82605]}, "properties": {"id": "lu-grot-0037", "name": "Totenkammer", "theme": "grotte", "description": "", "links": [{"label": "🔎 Infos", "url": "https://www.google.com/search?q=Totenkammer%20Luxembourg"}], "photos": [], "details": {"type": "Grotte", "fiche": "À vérifier"}}}, {"type": "Feature", "geometry": {"type": "Point", "coordinates": [6.103164, 49.747874]}, "properties": {"id": "lu-chat-0001", "name": "Administration communale", "theme": "chateau", "description": "Le château de Mersch, situé à Mersch, dans le centre du Luxembourg, est un des châteaux faisant partie de la vallée des sept châteaux.", "links": [{"label": "🌐 Site officiel", "url": "https://www.mersch.lu"}, {"label": "🔗 Wikipédia", "url": "https://fr.wikipedia.org/wiki/Ch%C3%A2teau_de_Mersch"}, {"label": "🔎 Infos", "url": "https://www.google.com/search?q=Administration%20communale%20Luxembourg"}], "photos": ["https://upload.wikimedia.org/wikipedia/commons/thumb/e/e6/Mersch_castle_2.jpg/960px-Mersch_castle_2.jpg"], "details": {"type": "Château", "fiche": "Référencé"}}}, {"type": "Feature", "geometry": {"type": "Point", "coordinates": [6.13776, 49.64337]}, "properties": {"id": "lu-chat-0002", "name": "Ambassade de Russie", "theme": "chateau", "description": "", "links": [{"label": "🌐 Site officiel", "url": "https://ambruslu.mid.ru"}, {"label": "🔎 Infos", "url": "https://www.google.com/search?q=Ambassade%20de%20Russie%20Luxembourg"}], "photos": [], "details": {"type": "Château", "fiche": "Référencé"}}}, {"type": "Feature", "geometry": {"type": "Point", "coordinates": [6.28658, 49.833621]}, "properties": {"id": "lu-chat-0003", "name": "Buerg Beefort", "theme": "chateau", "description": "Le château de Beaufort est un ensemble formé de ruines d'une forteresse médiévale et d'une résidence du XVIIe siècle adjacente situé à Beaufort, au Grand-Duché de Luxembourg.", "links": [{"label": "🌐 Site officiel", "url": "http://www.chateau-beaufort.lu/"}, {"label": "🔗 Wikipédia", "url": "https://fr.wikipedia.org/wiki/Ch%C3%A2teau_de_Beaufort_%28Luxembourg%29"}, {"label": "🔎 Infos", "url": "https://www.google.com/search?q=Buerg%20Beefort%20Luxembourg"}], "photos": ["https://upload.wikimedia.org/wikipedia/commons/thumb/3/32/Beaufort_Castle_2.jpg/960px-Beaufort_Castle_2.jpg"], "details": {"type": "Fort", "etat": "Ruine", "fiche": "Référencé"}}}, {"type": "Feature", "geometry": {"type": "Point", "coordinates": [6.137651, 49.912879]}, "properties": {"id": "lu-chat-0004", "name": "Buerg Branebuerg", "theme": "chateau", "description": "", "links": [{"label": "🔎 Infos", "url": "https://www.google.com/search?q=Buerg%20Branebuerg%20Luxembourg"}], "photos": ["https://upload.wikimedia.org/wikipedia/commons/b/bd/Brandenbourg_Castle_01_Luxembourg.jpg"], "details": {"type": "Fort", "etat": "Ruine", "fiche": "Référencé"}}}, {"type": "Feature", "geometry": {"type": "Point", "coordinates": [6.217235, 49.785614]}, "properties": {"id": "lu-chat-0005", "name": "Buerg Fiels", "theme": "chateau", "description": "Die Burg Fels (luxemburgisch: Buerg Fiels) liegt in der Gemeinde Fels in Luxemburg.", "links": [{"label": "🔗 Wikipédia", "url": "https://de.wikipedia.org/wiki/Burg_Fels"}, {"label": "🔎 Infos", "url": "https://www.google.com/search?q=Buerg%20Fiels%20Luxembourg"}], "photos": ["https://upload.wikimedia.org/wikipedia/commons/d/d2/Fiels_Buerg.jpg"], "details": {"type": "Fort", "fiche": "Référencé"}}}, {"type": "Feature", "geometry": {"type": "Point", "coordinates": [6.154376, 49.572907]}, "properties": {"id": "lu-chat-0006", "name": "Buerg Hesper", "theme": "chateau", "description": "", "links": [{"label": "🔎 Infos", "url": "https://www.google.com/search?q=Buerg%20Hesper%20Luxembourg"}], "photos": [], "details": {"type": "Fort", "etat": "Ruine", "fiche": "À vérifier"}}}, {"type": "Feature", "geometry": {"type": "Point", "coordinates": [6.16613, 49.965791]}, "properties": {"id": "lu-chat-0007", "name": "Buerg Stolzebuerg", "theme": "chateau", "description": "", "links": [{"label": "🔎 Infos", "url": "https://www.google.com/search?q=Buerg%20Stolzebuerg%20Luxembourg"}], "photos": [], "details": {"type": "Château", "fiche": "À vérifier"}}}, {"type": "Feature", "geometry": {"type": "Point", "coordinates": [6.391672, 49.731774]}, "properties": {"id": "lu-chat-0008", "name": "Burgruine Berbourg", "theme": "chateau", "description": "Berbourg (luxembourgeois: Berbuerg, allemand: Berburg) est une section de la commune luxembourgeoise de Manternach située dans le canton de Grevenmacher.", "links": [{"label": "🔗 Wikipédia", "url": "https://fr.wikipedia.org/wiki/Berbourg"}, {"label": "🔎 Infos", "url": "https://www.google.com/search?q=Burgruine%20Berbourg%20Luxembourg"}], "photos": ["https://upload.wikimedia.org/wikipedia/commons/thumb/3/3e/Kirche_Berbourg_01.jpg/960px-Kirche_Berbourg_01.jpg"], "details": {"type": "Fort", "fiche": "Référencé"}}}, {"type": "Feature", "geometry": {"type": "Point", "coordinates": [6.079226, 49.90558]}, "properties": {"id": "lu-chat-0009", "name": "Buurschter Schlass", "theme": "chateau", "description": "Bourscheid Castle. A big medieval castle on top of a hill with many towers and a splendid view of the surrounding nature.", "links": [{"label": "🔗 Wikipédia", "url": "https://fr.wikipedia.org/wiki/Ch%C3%A2teau_de_Bourscheid"}, {"label": "🔎 Infos", "url": "https://www.google.com/search?q=Buurschter%20Schlass%20Luxembourg"}], "photos": ["https://upload.wikimedia.org/wikipedia/commons/thumb/4/45/Chateau_bourscheid.jpg/960px-Chateau_bourscheid.jpg"], "details": {"type": "Fort", "fiche": "Référencé"}}}, {"type": "Feature", "geometry": {"type": "Point", "coordinates": [5.987041, 49.499213]}, "properties": {"id": "lu-chat-0010", "name": "Château Berwart", "theme": "chateau", "description": "This tower is the only remnant from the demolished castle", "links": [{"label": "🌐 Site officiel", "url": "https://www.industrie.lu/ChateauBerwartEschAlzette.html"}, {"label": "🔗 Wikipédia", "url": "https://fr.wikipedia.org/wiki/Centre_de_recherche_public_Henri-Tudor"}, {"label": "🔎 Infos", "url": "https://www.google.com/search?q=Ch%C3%A2teau%20Berwart%20Luxembourg"}], "photos": [], "details": {"type": "Château", "etat": "Ruine", "fiche": "Référencé"}}}, {"type": "Feature", "geometry": {"type": "Point", "coordinates": [6.079192, 49.60416]}, "properties": {"id": "lu-chat-0011", "name": "Château Helfent", "theme": "chateau", "description": "", "links": [{"label": "🔎 Infos", "url": "https://www.google.com/search?q=Ch%C3%A2teau%20Helfent%20Luxembourg"}], "photos": [], "details": {"type": "Château", "fiche": "À vérifier"}}}, {"type": "Feature", "geometry": {"type": "Point", "coordinates": [6.222583, 49.524815]}, "properties": {"id": "lu-chat-0012", "name": "Château d'Aspelt", "theme": "chateau", "description": "Aspelt (luxembourgeois : Uespelt) est une section de la commune luxembourgeoise de Frisange située dans le canton d'Esch-sur-Alzette.", "links": [{"label": "🔗 Wikipédia", "url": "https://fr.wikipedia.org/wiki/Aspelt_%28localit%C3%A9%29"}, {"label": "🔎 Infos", "url": "https://www.google.com/search?q=Ch%C3%A2teau%20d%27Aspelt%20Luxembourg"}], "photos": ["https://upload.wikimedia.org/wikipedia/commons/thumb/1/19/Schloss_von_Aspelt_04.jpg/960px-Schloss_von_Aspelt_04.jpg"], "details": {"type": "Château", "fiche": "Référencé"}}}, {"type": "Feature", "geometry": {"type": "Point", "coordinates": [6.111655, 49.860082]}, "properties": {"id": "lu-chat-0013", "name": "Château d'Erpeldange", "theme": "chateau", "description": "Erpeldange-sur-Sûre (en luxembourgeois : Ierpeldeng op der Sauer  et en allemand : Erpeldingen an der Sauer), anciennement Erpeldange, est une commune située dans le canton de Diekirch.", "links": [{"label": "🔗 Wikipédia", "url": "https://fr.wikipedia.org/wiki/Erpeldange-sur-S%C3%BBre"}, {"label": "🔎 Infos", "url": "https://www.google.com/search?q=Ch%C3%A2teau%20d%27Erpeldange%20Luxembourg"}], "photos": ["https://upload.wikimedia.org/wikipedia/commons/thumb/4/45/Ierpeldeng_un_der_Sauer_logo.svg/960px-Ierpeldeng_un_der_Sauer_logo.svg.png"], "details": {"type": "Château", "fiche": "Référencé"}}}, {"type": "Feature", "geometry": {"type": "Point", "coordinates": [5.934384, 49.911048]}, "properties": {"id": "lu-chat-0014", "name": "Château d'Esch-sur-Sûre", "theme": "chateau", "description": "Le château d’Esch-sur-Sûre est un château fort situé dans le village luxembourgeois d’Esch-sur-Sûre.", "links": [{"label": "🔗 Wikipédia", "url": "https://fr.wikipedia.org/wiki/Ch%C3%A2teau_d%27Esch-sur-S%C3%BBre"}, {"label": "🔎 Infos", "url": "https://www.google.com/search?q=Ch%C3%A2teau%20d%27Esch-sur-S%C3%BBre%20Luxembourg"}], "photos": ["https://upload.wikimedia.org/wikipedia/commons/thumb/c/cc/Chateau_esch_sur_sure_1.jpg/960px-Chateau_esch_sur_sure_1.jpg"], "details": {"type": "Château", "fiche": "Référencé"}}}, {"type": "Feature", "geometry": {"type": "Point", "coordinates": [5.980304, 49.768197]}, "properties": {"id": "lu-chat-0015", "name": "Château d'Useldange", "theme": "chateau", "description": "Le château d'Useldange est un château médiéval, principalement à l'état de ruines, situé dans le village d'Useldange au Luxembourg.", "links": [{"label": "🔗 Wikipédia", "url": "https://fr.wikipedia.org/wiki/Ch%C3%A2teau_d%27Useldange"}, {"label": "🔎 Infos", "url": "https://www.google.com/search?q=Ch%C3%A2teau%20d%27Useldange%20Luxembourg"}], "photos": ["https://upload.wikimedia.org/wikipedia/commons/thumb/7/72/Useldange%2C_ch%C3%A2teau_%28118%29.jpg/960px-Useldange%2C_ch%C3%A2teau_%28118%29.jpg"], "details": {"type": "Château", "etat": "Ruine", "fiche": "Référencé"}}}, {"type": "Feature", "geometry": {"type": "Point", "coordinates": [6.087692, 49.814687]}, "properties": {"id": "lu-chat-0016", "name": "Château de Berg", "theme": "chateau", "description": "Le château de Berg (en luxembourgeois : Schlass Bierg, en allemand : Schloss Berg) est la résidence principale de la famille grand-ducale du Luxembourg.", "links": [{"label": "🔗 Wikipédia", "url": "https://fr.wikipedia.org/wiki/Ch%C3%A2teau_de_Berg_%28Luxembourg%29"}, {"label": "🔎 Infos", "url": "https://www.google.com/search?q=Ch%C3%A2teau%20de%20Berg%20Luxembourg"}], "photos": ["https://upload.wikimedia.org/wikipedia/commons/thumb/3/32/Berg_Castle_1.jpg/960px-Berg_Castle_1.jpg"], "details": {"type": "Château", "fiche": "Référencé"}}}, {"type": "Feature", "geometry": {"type": "Point", "coordinates": [6.096782, 49.517332]}, "properties": {"id": "lu-chat-0017", "name": "Château de Bettembourg", "theme": "chateau", "description": "La gare de Bettembourg est une gare ferroviaire luxembourgeoise de la ligne 6, de Luxembourg à Bettembourg, située à Bettembourg sur le territoire de la commune de Bettembourg, dans le canton d'Esch-sur-Alzette.", "links": [{"label": "🔗 Wikipédia", "url": "https://fr.wikipedia.org/wiki/Gare_de_Bettembourg"}, {"label": "🔎 Infos", "url": "https://www.google.com/search?q=Ch%C3%A2teau%20de%20Bettembourg%20Luxembourg"}], "photos": ["https://upload.wikimedia.org/wikipedia/commons/thumb/4/41/Gare_de_Bettembourg_-_b%C3%A2timent_principal_02.jpg/960px-Gare_de_Bettembourg_-_b%C3%A2timent_principal_02.jpg"], "details": {"type": "Château", "fiche": "Référencé"}}}, {"type": "Feature", "geometry": {"type": "Point", "coordinates": [6.22026, 49.876054]}, "properties": {"id": "lu-chat-0018", "name": "Château de Bettendorf", "theme": "chateau", "description": "La gare de Bettendorf était une gare ferroviaire luxembourgeoise de la ligne d'Ettelbruck à Grevenmacher, située sur le territoire de la commune de Bettendorf, dans le canton de Diekirch.", "links": [{"label": "🔗 Wikipédia", "url": "https://fr.wikipedia.org/wiki/Gare_de_Bettendorf"}, {"label": "🔎 Infos", "url": "https://www.google.com/search?q=Ch%C3%A2teau%20de%20Bettendorf%20Luxembourg"}], "photos": ["https://upload.wikimedia.org/wikipedia/commons/thumb/8/80/Bettendorf%2C_ancienne_gare_%28101%29.jpg/960px-Bettendorf%2C_ancienne_gare_%28101%29.jpg"], "details": {"type": "Château", "fiche": "Référencé"}}}, {"type": "Feature", "geometry": {"type": "Point", "coordinates": [6.330727, 49.694071]}, "properties": {"id": "lu-chat-0019", "name": "Château de Betzdorf", "theme": "chateau", "description": "SES SA est le premier fournisseur de services de télécommunication par satellite au monde avec plus de 2 milliards d'euros de chiffre d'affaires.", "links": [{"label": "🔗 Wikipédia", "url": "https://fr.wikipedia.org/wiki/SES_%28entreprise%29"}, {"label": "🔎 Infos", "url": "https://www.google.com/search?q=Ch%C3%A2teau%20de%20Betzdorf%20Luxembourg"}], "photos": [], "details": {"type": "Château", "fiche": "Référencé"}}}, {"type": "Feature", "geometry": {"type": "Point", "coordinates": [6.089094, 49.826338]}, "properties": {"id": "lu-chat-0020", "name": "Château de Birtrange", "theme": "chateau", "description": "Le château de Birtrange est un château à Birtrange, à Schieren, au Luxembourg.", "links": [{"label": "🔗 Wikipédia", "url": "https://fr.wikipedia.org/wiki/Ch%C3%A2teau_de_Birtrange"}, {"label": "🔎 Infos", "url": "https://www.google.com/search?q=Ch%C3%A2teau%20de%20Birtrange%20Luxembourg"}], "photos": ["https://upload.wikimedia.org/wikipedia/commons/thumb/e/ee/Birtrange_Castle_front_05.jpg/960px-Birtrange_Castle_front_05.jpg"], "details": {"type": "Château", "fiche": "Référencé"}}}, {"type": "Feature", "geometry": {"type": "Point", "coordinates": [6.217296, 49.702565]}, "properties": {"id": "lu-chat-0021", "name": "Château de Bourglinster", "theme": "chateau", "description": "Bourglinster (en luxembourgeois : Buerglënster  ou parfois localement an der Buerg et en allemand : Burglinster) est un village et une section de la commune luxembourgeoise de Junglinster située dans le canton de Grevenmacher.", "links": [{"label": "🌐 Site officiel", "url": "https://www.visitluxembourg.com/en/place/castle/bourglinster-castle"}, {"label": "🔗 Wikipédia", "url": "https://fr.wikipedia.org/wiki/Bourglinster"}, {"label": "🔎 Infos", "url": "https://www.google.com/search?q=Ch%C3%A2teau%20de%20Bourglinster%20Luxembourg"}], "photos": ["https://upload.wikimedia.org/wikipedia/commons/thumb/c/c1/Bourglinster_from_viewpoint_Buchholz_2021-07_--3.jpg/960px-Bourglinster_from_viewpoint_Buchholz_2021-07_--3.jpg"], "details": {"type": "Château", "fiche": "Référencé"}}}, {"type": "Feature", "geometry": {"type": "Point", "coordinates": [6.030222, 50.054443]}, "properties": {"id": "lu-chat-0022", "name": "Château de Clervaux", "theme": "chateau", "description": "Le château de Clervaux (en luxembourgeois : Schlass Klierf et en allemand : Schloss Clerf), est un château fort qui date du XIIe siècle ; il surplombe le village éponyme, Clervaux, au milieu du paysage ardennais.", "links": [{"label": "🔗 Wikipédia", "url": "https://fr.wikipedia.org/wiki/Ch%C3%A2teau_de_Clervaux"}, {"label": "🔎 Infos", "url": "https://www.google.com/search?q=Ch%C3%A2teau%20de%20Clervaux%20Luxembourg"}], "photos": ["https://upload.wikimedia.org/wikipedia/commons/thumb/6/61/Clervaux_Castle_6.JPG/960px-Clervaux_Castle_6.JPG"], "details": {"type": "Château", "fiche": "Référencé"}}}, {"type": "Feature", "geometry": {"type": "Point", "coordinates": [5.825854, 49.759418]}, "properties": {"id": "lu-chat-0023", "name": "Château de Colpach", "theme": "chateau", "description": "Le château de Colpach était une forteresse du XIVe siècle située à Colpach-Bas sur la commune d'Ell, près de la frontière belge.", "links": [{"label": "🔗 Wikipédia", "url": "https://fr.wikipedia.org/wiki/Ch%C3%A2teau_de_Colpach"}, {"label": "🔎 Infos", "url": "https://www.google.com/search?q=Ch%C3%A2teau%20de%20Colpach%20Luxembourg"}], "photos": ["https://upload.wikimedia.org/wikipedia/commons/thumb/6/66/Schlass_Kolpech.JPG/960px-Schlass_Kolpech.JPG"], "details": {"type": "Château", "fiche": "Référencé"}}}, {"type": "Feature", "geometry": {"type": "Point", "coordinates": [6.186849, 49.747598]}, "properties": {"id": "lu-chat-0024", "name": "Château de Fischbach", "theme": "chateau", "description": "Le château de Fischbach (en luxembourgeois : Schlass Fëschbech et en en allemand : Schloss Fischbach) est un château situé aux environs de la commune de Fischbach au cœur du Luxembourg.", "links": [{"label": "🔗 Wikipédia", "url": "https://fr.wikipedia.org/wiki/Ch%C3%A2teau_de_Fischbach"}, {"label": "🔎 Infos", "url": "https://www.google.com/search?q=Ch%C3%A2teau%20de%20Fischbach%20Luxembourg"}], "photos": ["https://upload.wikimedia.org/wikipedia/commons/thumb/d/d4/Ch%C3%A2teau_de_Fischbach_2021-07.jpg/960px-Ch%C3%A2teau_de_Fischbach_2021-07.jpg"], "details": {"type": "Château", "fiche": "Référencé"}}}, {"type": "Feature", "geometry": {"type": "Point", "coordinates": [6.051591, 49.712103]}, "properties": {"id": "lu-chat-0025", "name": "Château de Hollenfels", "theme": "chateau", "description": "Le château de Hollenfels est un château luxembourgeois situé à Hollenfels dans la commune de Helperknapp.", "links": [{"label": "🔗 Wikipédia", "url": "https://fr.wikipedia.org/wiki/Ch%C3%A2teau_de_Hollenfels"}, {"label": "🔎 Infos", "url": "https://www.google.com/search?q=Ch%C3%A2teau%20de%20Hollenfels%20Luxembourg"}], "photos": ["https://upload.wikimedia.org/wikipedia/commons/thumb/b/b9/Hollenfels_castle_3.jpg/960px-Hollenfels_castle_3.jpg"], "details": {"type": "Château", "fiche": "Référencé"}}}, {"type": "Feature", "geometry": {"type": "Point", "coordinates": [6.387224, 49.796188]}, "properties": {"id": "lu-chat-0026", "name": "Château de Lauterborn", "theme": "chateau", "description": "Lauterborn (en luxembourgeois : Lauterbuer ), est un lieu-dit de la commune luxembourgeoise d'Echternach.", "links": [{"label": "🔗 Wikipédia", "url": "https://fr.wikipedia.org/wiki/Lauterborn"}, {"label": "🔎 Infos", "url": "https://www.google.com/search?q=Ch%C3%A2teau%20de%20Lauterborn%20Luxembourg"}], "photos": ["https://upload.wikimedia.org/wikipedia/commons/thumb/3/3c/Lauterborn_Chapel_R01.jpg/960px-Lauterborn_Chapel_R01.jpg"], "details": {"type": "Château", "fiche": "Référencé"}}}, {"type": "Feature", "geometry": {"type": "Point", "coordinates": [6.127316, 49.625317]}, "properties": {"id": "lu-chat-0027", "name": "Château de Limpertsberg", "theme": "chateau", "description": "", "links": [{"label": "🔎 Infos", "url": "https://www.google.com/search?q=Ch%C3%A2teau%20de%20Limpertsberg%20Luxembourg"}], "photos": [], "details": {"type": "Château", "fiche": "À vérifier"}}}, {"type": "Feature", "geometry": {"type": "Point", "coordinates": [6.188932, 49.770448]}, "properties": {"id": "lu-chat-0028", "name": "Château de Meysembourg", "theme": "chateau", "description": "Meysembourg, (en luxembourgeois : Meesebuerg  et en allemand : Meysemburg), est un lieu-dit de la commune luxembourgeoise de Larochette située dans le canton de Mersch.", "links": [{"label": "🔗 Wikipédia", "url": "https://fr.wikipedia.org/wiki/Meysembourg"}, {"label": "🔎 Infos", "url": "https://www.google.com/search?q=Ch%C3%A2teau%20de%20Meysembourg%20Luxembourg"}], "photos": ["https://upload.wikimedia.org/wikipedia/commons/thumb/3/38/Schlass_Meesebuerg_2.JPG/960px-Schlass_Meesebuerg_2.JPG"], "details": {"type": "Château", "fiche": "Référencé"}}}, {"type": "Feature", "geometry": {"type": "Point", "coordinates": [5.925984, 49.543271]}, "properties": {"id": "lu-chat-0029", "name": "Château de Sanem", "theme": "chateau", "description": "Le château de Sanem est un château situé au sud du Luxembourg édifié au Moyen Âge sur les ruines de fortifications romaines.", "links": [{"label": "🔗 Wikipédia", "url": "https://fr.wikipedia.org/wiki/Ch%C3%A2teau_de_Sanem"}, {"label": "🔎 Infos", "url": "https://www.google.com/search?q=Ch%C3%A2teau%20de%20Sanem%20Luxembourg"}], "photos": ["https://upload.wikimedia.org/wikipedia/commons/thumb/4/46/SuessemSchlass01.jpg/960px-SuessemSchlass01.jpg"], "details": {"type": "Château", "fiche": "Référencé"}}}, {"type": "Feature", "geometry": {"type": "Point", "coordinates": [6.365845, 49.470111]}, "properties": {"id": "lu-chat-0030", "name": "Château de Schengen", "theme": "chateau", "description": "Le château de Schengen est situé dans le village de Schengen, dans le sud-est du Luxembourg et à proximité des frontières avec la France et l'Allemagne.", "links": [{"label": "🌐 Site officiel", "url": "https://www.chateauschengen.lu/"}, {"label": "🔗 Wikipédia", "url": "https://fr.wikipedia.org/wiki/Ch%C3%A2teau_de_Schengen"}, {"label": "🔎 Infos", "url": "https://www.google.com/search?q=Ch%C3%A2teau%20de%20Schengen%20Luxembourg"}], "photos": ["https://upload.wikimedia.org/wikipedia/commons/thumb/9/96/Schengener_Schlass.JPG/960px-Schengener_Schlass.JPG"], "details": {"type": "Château", "fiche": "Référencé"}}}, {"type": "Feature", "geometry": {"type": "Point", "coordinates": [6.093203, 49.71967]}, "properties": {"id": "lu-chat-0031", "name": "Château de Schoenfels", "theme": "chateau", "description": "Le château de Schoenfels est un château luxembourgeois situé à Schoenfels, dans la vallée de la Mamer, entre Kopstal et Mersch.", "links": [{"label": "🔗 Wikipédia", "url": "https://fr.wikipedia.org/wiki/Ch%C3%A2teau_de_Schoenfels"}, {"label": "🔎 Infos", "url": "https://www.google.com/search?q=Ch%C3%A2teau%20de%20Schoenfels%20Luxembourg"}], "photos": ["https://upload.wikimedia.org/wikipedia/commons/thumb/4/40/Schoenfels3.JPG/960px-Schoenfels3.JPG"], "details": {"type": "Château", "fiche": "Référencé"}}}, {"type": "Feature", "geometry": {"type": "Point", "coordinates": [6.105077, 49.625718]}, "properties": {"id": "lu-chat-0032", "name": "Château de Septfontaines", "theme": "chateau", "description": "Le château de Septfontaines, situé au cœur de la ville de Luxembourg, est l'ancienne résidence seigneuriale des frères Boch érigée au XVIIIe siècle.", "links": [{"label": "🌐 Site officiel", "url": "http://www.chateaudeseptfontaines.com/"}, {"label": "🔗 Wikipédia", "url": "https://fr.wikipedia.org/wiki/Ch%C3%A2teau_de_Septfontaines_%28Luxembourg%29"}, {"label": "🔎 Infos", "url": "https://www.google.com/search?q=Ch%C3%A2teau%20de%20Septfontaines%20Luxembourg"}], "photos": ["https://upload.wikimedia.org/wikipedia/commons/thumb/a/a1/Septfontaines_Rollingergrund.JPG/960px-Septfontaines_Rollingergrund.JPG"], "details": {"type": "Château", "fiche": "Référencé"}}}, {"type": "Feature", "geometry": {"type": "Point", "coordinates": [5.963836, 49.700729]}, "properties": {"id": "lu-chat-0033", "name": "Château de Septfontaines", "theme": "chateau", "description": "Le château de Septfontaines est un château médiéval luxembourgeois faisant partie de la vallée des sept châteaux, situé dans les hauteurs de Septfontaines, dans la commune de Habscht.", "links": [{"label": "🔗 Wikipédia", "url": "https://fr.wikipedia.org/wiki/Ch%C3%A2teau_de_Septfontaines_%28Habscht%29"}, {"label": "🔎 Infos", "url": "https://www.google.com/search?q=Ch%C3%A2teau%20de%20Septfontaines%20Luxembourg"}], "photos": ["https://upload.wikimedia.org/wikipedia/commons/thumb/2/27/Buerg_Simmer_%28Septfontaines%29.jpg/960px-Buerg_Simmer_%28Septfontaines%29.jpg"], "details": {"type": "Fort", "fiche": "Référencé"}}}, {"type": "Feature", "geometry": {"type": "Point", "coordinates": [6.368212, 49.564115]}, "properties": {"id": "lu-chat-0034", "name": "Château de Stradtbredimus", "theme": "chateau", "description": "", "links": [{"label": "🔎 Infos", "url": "https://www.google.com/search?q=Ch%C3%A2teau%20de%20Stradtbredimus%20Luxembourg"}], "photos": [], "details": {"type": "Château", "fiche": "À vérifier"}}}, {"type": "Feature", "geometry": {"type": "Point", "coordinates": [6.202832, 49.934877]}, "properties": {"id": "lu-chat-0035", "name": "Château de Vianden", "theme": "chateau", "description": "Le château de Vianden est un château fort situé dans la ville de Vianden, au nord-est du Luxembourg.", "links": [{"label": "🌐 Site officiel", "url": "https://castle-vianden.lu/"}, {"label": "🔗 Wikipédia", "url": "https://fr.wikipedia.org/wiki/Ch%C3%A2teau_de_Vianden"}, {"label": "🔎 Infos", "url": "https://www.google.com/search?q=Ch%C3%A2teau%20de%20Vianden%20Luxembourg"}], "photos": ["https://upload.wikimedia.org/wikipedia/commons/thumb/a/a9/Vianden_castle.jpg/960px-Vianden_castle.jpg"], "details": {"type": "Château", "fiche": "Référencé"}}}, {"type": "Feature", "geometry": {"type": "Point", "coordinates": [6.133815, 49.660395]}, "properties": {"id": "lu-chat-0036", "name": "Château de Walferdange", "theme": "chateau", "description": "La gare de Walferdange est une gare ferroviaire luxembourgeoise de la ligne 1, de Luxembourg à Troisvierges-frontière, située près du centre-ville de Walferdange sur le territoire de la commune du même nom, dans le canton de Luxembourg.", "links": [{"label": "🌐 Site officiel", "url": "https://walfer.lu/virtual_visit/chateau/"}, {"label": "🔗 Wikipédia", "url": "https://fr.wikipedia.org/wiki/Gare_de_Walferdange"}, {"label": "🔎 Infos", "url": "https://www.google.com/search?q=Ch%C3%A2teau%20de%20Walferdange%20Luxembourg"}], "photos": ["https://upload.wikimedia.org/wikipedia/commons/thumb/5/51/Gare_Walferdange_01.jpg/960px-Gare_Walferdange_01.jpg"], "details": {"type": "Château", "fiche": "Référencé"}}}, {"type": "Feature", "geometry": {"type": "Point", "coordinates": [6.272812, 49.70269]}, "properties": {"id": "lu-chat-0037", "name": "Château de Weymerich", "theme": "chateau", "description": "", "links": [{"label": "🔎 Infos", "url": "https://www.google.com/search?q=Ch%C3%A2teau%20de%20Weymerich%20Luxembourg"}], "photos": [], "details": {"type": "Château", "fiche": "À vérifier"}}}, {"type": "Feature", "geometry": {"type": "Point", "coordinates": [5.938514, 49.966467]}, "properties": {"id": "lu-chat-0038", "name": "Château de Wiltz", "theme": "chateau", "description": "", "links": [{"label": "🔎 Infos", "url": "https://www.google.com/search?q=Ch%C3%A2teau%20de%20Wiltz%20Luxembourg"}], "photos": [], "details": {"type": "Château", "fiche": "À vérifier"}}}, {"type": "Feature", "geometry": {"type": "Point", "coordinates": [6.185024, 49.691862]}, "properties": {"id": "lu-chat-0039", "name": "Eesebuerer Schlass", "theme": "chateau", "description": "Le château d'Eisenborn (Eesebuer Schlass en luxembourgeois) est une bâtisse du XVIIIe siècle à Eisenborn, dans la commune de Junglinster.", "links": [{"label": "🔗 Wikipédia", "url": "https://fr.wikipedia.org/wiki/Ch%C3%A2teau_d%27Eisenborn"}, {"label": "🔎 Infos", "url": "https://www.google.com/search?q=Eesebuerer%20Schlass%20Luxembourg"}], "photos": ["https://upload.wikimedia.org/wikipedia/commons/thumb/a/a1/1_Chemin_Foret_Eisenborn_Luxembourg_2011-08.JPG/960px-1_Chemin_Foret_Eisenborn_Luxembourg_2011-08.JPG"], "details": {"type": "Château", "fiche": "Référencé"}}}, {"type": "Feature", "geometry": {"type": "Point", "coordinates": [5.950231, 49.669521]}, "properties": {"id": "lu-chat-0040", "name": "Gréiveschlass", "theme": "chateau", "description": "Le château de Koerich (en luxembourgeois : Schlass Käerch; en allemand : Schloss Koerich) est un château luxembouregois situé à Koerich.", "links": [{"label": "🔗 Wikipédia", "url": "https://fr.wikipedia.org/wiki/Ch%C3%A2teau_de_Koerich"}, {"label": "🔎 Infos", "url": "https://www.google.com/search?q=Gr%C3%A9iveschlass%20Luxembourg"}], "photos": ["https://upload.wikimedia.org/wikipedia/commons/thumb/b/b6/Gr%C3%A9iveschlass_K%C3%A4erch.jpg/960px-Gr%C3%A9iveschlass_K%C3%A4erch.jpg"], "details": {"type": "Château", "fiche": "Référencé"}}}, {"type": "Feature", "geometry": {"type": "Point", "coordinates": [6.307648, 49.793681]}, "properties": {"id": "lu-chat-0041", "name": "Heringerbuerg", "theme": "chateau", "description": "", "links": [{"label": "🔎 Infos", "url": "https://www.google.com/search?q=Heringerbuerg%20Luxembourg"}], "photos": [], "details": {"type": "Fort", "fiche": "À vérifier"}}}, {"type": "Feature", "geometry": {"type": "Point", "coordinates": [5.950448, 49.669537]}, "properties": {"id": "lu-chat-0042", "name": "Koerich Castle", "theme": "chateau", "description": "Le château de Koerich (en luxembourgeois : Schlass Käerch; en allemand : Schloss Koerich) est un château luxembouregois situé à Koerich.", "links": [{"label": "🔗 Wikipédia", "url": "https://fr.wikipedia.org/wiki/Ch%C3%A2teau_de_Koerich"}, {"label": "🔎 Infos", "url": "https://www.google.com/search?q=Koerich%20Castle%20Luxembourg"}], "photos": ["https://upload.wikimedia.org/wikipedia/commons/thumb/b/b6/Gr%C3%A9iveschlass_K%C3%A4erch.jpg/960px-Gr%C3%A9iveschlass_K%C3%A4erch.jpg"], "details": {"type": "Château", "fiche": "Référencé"}}}, {"type": "Feature", "geometry": {"type": "Point", "coordinates": [5.889016, 49.521353]}, "properties": {"id": "lu-chat-0043", "name": "Miami University John E. Dolibois European Campus", "theme": "chateau", "description": "", "links": [{"label": "🌐 Site officiel", "url": "http://www.units.miamioh.edu/luxembourg/"}, {"label": "🔎 Infos", "url": "https://www.google.com/search?q=Miami%20University%20John%20E.%20Dolibois%20European%20Campus%20Luxembourg"}], "photos": [], "details": {"type": "Château", "fiche": "Référencé"}}}, {"type": "Feature", "geometry": {"type": "Point", "coordinates": [6.046621, 49.700678]}, "properties": {"id": "lu-chat-0044", "name": "Nouveau Château d'Ansembourg", "theme": "chateau", "description": "Le grand château d'Ansembourg, aussi appelé nouveau château d'Ansembourg est un château luxembourgeois situé sur la commune de Helperknapp.", "links": [{"label": "🔗 Wikipédia", "url": "https://fr.wikipedia.org/wiki/Grand_ch%C3%A2teau_d%27Ansembourg"}, {"label": "🔎 Infos", "url": "https://www.google.com/search?q=Nouveau%20Ch%C3%A2teau%20d%27Ansembourg%20Luxembourg"}], "photos": ["https://upload.wikimedia.org/wikipedia/commons/thumb/3/3d/New_castle%2C_Ansembourg%2C_Luxembourg.jpg/960px-New_castle%2C_Ansembourg%2C_Luxembourg.jpg"], "details": {"type": "Château", "fiche": "Référencé"}}}, {"type": "Feature", "geometry": {"type": "Point", "coordinates": [6.132913, 49.610988]}, "properties": {"id": "lu-chat-0045", "name": "Palais Grand Ducal", "theme": "chateau", "description": "Le siège de Luxembourg dura du 22 novembre 1794 jusqu'au 7 juin 1795 dans le cadre de la seconde annexion française des États de Belgique, pendant la guerre de la Première Coalition par les armées de la Révolution française contre la forteresse de Luxembourg, tenue par l'armée impériale.", "links": [{"label": "🔗 Wikipédia", "url": "https://fr.wikipedia.org/wiki/Si%C3%A8ge_de_Luxembourg_%281794-1795%29"}, {"label": "🔎 Infos", "url": "https://www.google.com/search?q=Palais%20Grand%20Ducal%20Luxembourg"}], "photos": ["https://upload.wikimedia.org/wikipedia/commons/4/4b/Si%C3%A8ge_de_Luxembourg_1794-1795.jpg"], "details": {"type": "Château", "fiche": "Référencé"}}}, {"type": "Feature", "geometry": {"type": "Point", "coordinates": [6.285811, 49.833803]}, "properties": {"id": "lu-chat-0046", "name": "Schlass Beefort", "theme": "chateau", "description": "Le château de Beaufort est un ensemble formé de ruines d'une forteresse médiévale et d'une résidence du XVIIe siècle adjacente situé à Beaufort, au Grand-Duché de Luxembourg.", "links": [{"label": "🔗 Wikipédia", "url": "https://fr.wikipedia.org/wiki/Ch%C3%A2teau_de_Beaufort_%28Luxembourg%29"}, {"label": "🔎 Infos", "url": "https://www.google.com/search?q=Schlass%20Beefort%20Luxembourg"}], "photos": ["https://upload.wikimedia.org/wikipedia/commons/thumb/3/32/Beaufort_Castle_2.jpg/960px-Beaufort_Castle_2.jpg"], "details": {"type": "Château", "fiche": "Référencé"}}}, {"type": "Feature", "geometry": {"type": "Point", "coordinates": [6.045564, 50.075508]}, "properties": {"id": "lu-chat-0047", "name": "Schlass Ischpelt", "theme": "chateau", "description": "Urspelt (luxembourgeois : Ischpelt) est une section de la commune luxembourgeoise de Clervaux située dans le canton de Clervaux.", "links": [{"label": "🌐 Site officiel", "url": "http://www.chateau-urspelt.lu"}, {"label": "🔗 Wikipédia", "url": "https://fr.wikipedia.org/wiki/Urspelt"}, {"label": "🔎 Infos", "url": "https://www.google.com/search?q=Schlass%20Ischpelt%20Luxembourg"}], "photos": ["https://upload.wikimedia.org/wikipedia/commons/thumb/f/f2/Kapelle_Urspelt_04.jpg/960px-Kapelle_Urspelt_04.jpg"], "details": {"type": "Château", "fiche": "Référencé"}}}, {"type": "Feature", "geometry": {"type": "Point", "coordinates": [6.25825, 49.611455]}, "properties": {"id": "lu-chat-0048", "name": "Schlass Schraasseg", "theme": "chateau", "description": "", "links": [{"label": "🔎 Infos", "url": "https://www.google.com/search?q=Schlass%20Schraasseg%20Luxembourg"}], "photos": [], "details": {"type": "Château", "fiche": "À vérifier"}}}, {"type": "Feature", "geometry": {"type": "Point", "coordinates": [6.380786, 49.556964]}, "properties": {"id": "lu-chat-0049", "name": "Schloss Remich", "theme": "chateau", "description": "", "links": [{"label": "🔎 Infos", "url": "https://www.google.com/search?q=Schloss%20Remich%20Luxembourg"}], "photos": [], "details": {"type": "Château", "fiche": "À vérifier"}}}, {"type": "Feature", "geometry": {"type": "Point", "coordinates": [5.881574, 49.830565]}, "properties": {"id": "lu-chat-0050", "name": "Schuerelserschlass", "theme": "chateau", "description": "", "links": [{"label": "🔎 Infos", "url": "https://www.google.com/search?q=Schuerelserschlass%20Luxembourg"}], "photos": [], "details": {"type": "Château", "fiche": "À vérifier"}}}, {"type": "Feature", "geometry": {"type": "Point", "coordinates": [6.026492, 49.964374]}, "properties": {"id": "lu-chat-0051", "name": "Schüttbuerg", "theme": "chateau", "description": "", "links": [{"label": "🔎 Infos", "url": "https://www.google.com/search?q=Sch%C3%BCttbuerg%20Luxembourg"}], "photos": [], "details": {"type": "Fort", "fiche": "À vérifier"}}}, {"type": "Feature", "geometry": {"type": "Point", "coordinates": [6.218045, 49.783794]}, "properties": {"id": "lu-chat-0052", "name": "Verluerekascht", "theme": "chateau", "description": "", "links": [{"label": "🔎 Infos", "url": "https://www.google.com/search?q=Verluerekascht%20Luxembourg"}], "photos": [], "details": {"type": "Château", "fiche": "À vérifier"}}}, {"type": "Feature", "geometry": {"type": "Point", "coordinates": [6.03819, 49.702999]}, "properties": {"id": "lu-chat-0053", "name": "Vieux Château d'Ansembourg", "theme": "chateau", "description": "Private castle, not opened to public!", "links": [{"label": "🔗 Wikipédia", "url": "https://fr.wikipedia.org/wiki/Ch%C3%A2teau_d%27Ansembourg"}, {"label": "🔎 Infos", "url": "https://www.google.com/search?q=Vieux%20Ch%C3%A2teau%20d%27Ansembourg%20Luxembourg"}], "photos": ["https://upload.wikimedia.org/wikipedia/commons/9/94/Fresez_Ansembourg_Ruins.jpg"], "details": {"type": "Château", "fiche": "Référencé"}}}, {"type": "Feature", "geometry": {"type": "Point", "coordinates": [6.124661, 49.608633]}, "properties": {"id": "lu-chat-0054", "name": "Villa Baldauff", "theme": "chateau", "description": "", "links": [{"label": "🔎 Infos", "url": "https://www.google.com/search?q=Villa%20Baldauff%20Luxembourg"}], "photos": [], "details": {"type": "Château", "fiche": "À vérifier"}}}, {"type": "Feature", "geometry": {"type": "Point", "coordinates": [6.032083, 50.055403]},